{"type":"FeatureCollection","name":"sexport","crs":{"type":"name","properties":{"name":"urn:ogc:def:crs:OGC:1.3:CRS84"}},"xy_coordinate_resolution":1e-15,"features":[{"type":"Feature","properties":{"id":"relation/42310","@id":"relation/42310","ele":null,"istat_id":null,"name":"Magione","place":null,"population":"14660","population:date":"01-01-2024","source:population":"https://esploradati.istat.it/","wikidata":"Q20462"},"geometry":{"type":"Polygon","coordinates":[[[12.2663748,43.0742883],[12.2629722,43.0774721],[12.2628492,43.07867],[12.2632416,43.0804985],[12.2641275,43.081884],[12.2637574,43.085751],[12.263143,43.0877648],[12.2633008,43.0893075],[12.2631394,43.0897189],[12.2631205,43.0898759],[12.2633616,43.0903538],[12.2689072,43.0937003],[12.2700431,43.0939786],[12.2658389,43.0960576],[12.2643991,43.097819],[12.2624197,43.0996319],[12.2578211,43.1011954],[12.2581428,43.1018719],[12.2545927,43.1056635],[12.2526323,43.1057997],[12.2504072,43.1062622],[12.2479779,43.1098225],[12.2474047,43.1139545],[12.2483972,43.1177758],[12.2509597,43.1217585],[12.2512619,43.1222749],[12.2484384,43.1232755],[12.2469505,43.1237992],[12.2435337,43.1258109],[12.2472493,43.1289239],[12.2493485,43.1301924],[12.2513619,43.1314822],[12.2552653,43.1341845],[12.2593455,43.136324],[12.2627823,43.1380991],[12.2640165,43.1387707],[12.2681328,43.1410366],[12.2688451,43.1419797],[12.2714832,43.142856],[12.2757873,43.1437797],[12.2771408,43.1463141],[12.2752145,43.1499728],[12.2711399,43.1517629],[12.2702316,43.1540254],[12.2692041,43.1577677],[12.2672084,43.1581986],[12.2661147,43.1577055],[12.2659523,43.1577717],[12.2631672,43.1611255],[12.2615669,43.1619783],[12.2603521,43.1658561],[12.2589859,43.1685979],[12.2582329,43.1702258],[12.258305,43.1738387],[12.2592801,43.1748505],[12.2620118,43.1777731],[12.2632778,43.1799347],[12.2642848,43.1818427],[12.2674071,43.1858171],[12.2689573,43.1901991],[12.2697926,43.1941972],[12.2715224,43.1957473],[12.2752811,43.1953025],[12.2782854,43.1935454],[12.2794801,43.1926339],[12.2833557,43.1917557],[12.2873946,43.190006],[12.291229,43.1918665],[12.2935409,43.1938083],[12.2952484,43.1941453],[12.2962007,43.1937394],[12.2965522,43.1939372],[12.2990886,43.197797],[12.2992459,43.1979479],[12.2991973,43.1998131],[12.295247,43.2018168],[12.2951878,43.2021368],[12.2952197,43.2024342],[12.2950535,43.202628],[12.2918841,43.2058078],[12.2910117,43.2064381],[12.2876512,43.2098523],[12.2870196,43.2106366],[12.2825752,43.2110625],[12.2790908,43.2128612],[12.2774994,43.2143333],[12.2755856,43.2178947],[12.2751928,43.2192564],[12.2759384,43.2202692],[12.2775892,43.2226168],[12.2793108,43.2255099],[12.2795057,43.2261046],[12.2782056,43.2261778],[12.2736837,43.2247279],[12.2707378,43.2237609],[12.2666657,43.222871],[12.2641551,43.2217234],[12.2627954,43.221714],[12.2586887,43.2198395],[12.2551577,43.219587],[12.2532773,43.2173651],[12.2540688,43.2131973],[12.2555332,43.2112192],[12.2554808,43.2095692],[12.2548608,43.2082353],[12.2530994,43.2055607],[12.2533799,43.2014253],[12.2555566,43.1973065],[12.2550054,43.195147],[12.2553044,43.1941186],[12.2556076,43.1933507],[12.2566077,43.1893771],[12.2562643,43.1854003],[12.2548298,43.1828493],[12.2541467,43.1814046],[12.250965,43.1796483],[12.2471308,43.1784421],[12.2459852,43.1776011],[12.2430558,43.1761513],[12.2391448,43.1741952],[12.2373921,43.173703],[12.2349803,43.171558],[12.2310639,43.1698574],[12.2299897,43.1692348],[12.2279879,43.1654281],[12.227057,43.1645059],[12.2229733,43.1623699],[12.2226374,43.1614996],[12.2225279,43.1620342],[12.2187014,43.1613789],[12.216687,43.1621546],[12.2149964,43.1648125],[12.2145067,43.1661117],[12.2130122,43.1698951],[12.2109731,43.173692],[12.2108331,43.1738608],[12.2070956,43.1746142],[12.2030328,43.1715451],[12.2019943,43.1688674],[12.198867,43.1662407],[12.1929765,43.1665266],[12.190463,43.1662282],[12.1891251,43.1656035],[12.1870791,43.1653649],[12.1830599,43.1645773],[12.0888757,43.1466912],[12.0812182,43.1452478],[12.151656,43.1167406],[12.1426532,43.098517],[12.141254,43.0901442],[12.1406684,43.0880142],[12.1396503,43.0842786],[12.1402214,43.0815156],[12.138964,43.0794651],[12.1384157,43.0773725],[12.1392656,43.0756165],[12.140564,43.0732785],[12.1428162,43.0694263],[12.1432394,43.0690954],[12.1478314,43.0675425],[12.1513725,43.0671023],[12.1560083,43.0687083],[12.158915,43.0697876],[12.1590708,43.0696519],[12.159457,43.0695318],[12.1597166,43.0697975],[12.1640233,43.0707749],[12.1657929,43.0696096],[12.1692086,43.0666712],[12.1712579,43.0692946],[12.1719128,43.0700511],[12.1743924,43.0739312],[12.175507,43.0753036],[12.1799048,43.0744061],[12.1818434,43.0728494],[12.1835851,43.0710272],[12.1851653,43.0696865],[12.1872367,43.069118],[12.1917864,43.0699685],[12.1961832,43.071904],[12.1997837,43.0723594],[12.2032546,43.0729741],[12.2075777,43.0725434],[12.2112968,43.0719183],[12.2153227,43.0699315],[12.2157746,43.0696197],[12.2192444,43.0672091],[12.2204471,43.0656389],[12.2233855,43.0621737],[12.2239799,43.0615558],[12.227252,43.0589542],[12.228183,43.0576935],[12.2268965,43.0564036],[12.227349,43.0562677],[12.2312625,43.055971],[12.2351565,43.0536347],[12.235259,43.0532763],[12.2393545,43.0522798],[12.2432849,43.0520747],[12.2476432,43.0522828],[12.2515886,43.0531045],[12.2559364,43.0540279],[12.2594596,43.0547548],[12.2610914,43.0580759],[12.2628863,43.0618146],[12.2638117,43.0630006],[12.2661413,43.0657543],[12.2631987,43.0698165],[12.2632403,43.0701141],[12.2658836,43.0737704],[12.2663748,43.0742883]]]}},{"type":"Feature","properties":{"id":"node/287019500","@id":"node/287019500","ele":"295","istat_id":"5402610005","name":"Monte del Lago","place":"hamlet","population":"182","population:date":"2021-12-31","source:population":"Istat 2021 census","wikidata":"Q17636613"},"geometry":{"type":"Point","coordinates":[12.1621976,43.1450245]}},{"type":"Feature","properties":{"id":"node/287019588","@id":"node/287019588","ele":"279","istat_id":"5402610008","name":"San Feliciano","place":"village","population":"933","population:date":"2021-12-31","source:population":"Istat 2021 census","wikidata":"Q2219479"},"geometry":{"type":"Point","coordinates":[12.1679561,43.1176557]}},{"type":"Feature","properties":{"id":"node/287875023","@id":"node/287875023","ele":"410","istat_id":"5402610004","name":"Montecolognola","place":"hamlet","population":"134","population:date":"2021-12-31","source:population":"Istat 2021 census","wikidata":"Q18493170"},"geometry":{"type":"Point","coordinates":[12.1926152,43.1509031]}},{"type":"Feature","properties":{"id":"node/287875218","@id":"node/287875218","ele":"261","istat_id":"5402610012","name":"Torricella","place":"hamlet","population":"168","population:date":"2021-12-31","source:population":"Istat 2021 census","wikidata":"Q3995761"},"geometry":{"type":"Point","coordinates":[12.1879809,43.1598669]}},{"type":"Feature","properties":{"id":"node/1593787013","@id":"node/1593787013","ele":"347","istat_id":"5402610006","name":"Monte Melino","place":"hamlet","population":"25","population:date":"2021-12-31","source:population":"Istat 2021 census","wikidata":"Q18493151"},"geometry":{"type":"Point","coordinates":[12.2379002,43.1082515]}},{"type":"Feature","properties":{"id":"node/1910501550","@id":"node/1910501550","ele":null,"istat_id":null,"name":"Casenuove","place":"village","population":null,"population:date":null,"source:population":null,"wikidata":null},"geometry":{"type":"Point","coordinates":[12.2014097,43.1236248]}},{"type":"Feature","properties":{"id":"node/2376821369","@id":"node/2376821369","ele":null,"istat_id":null,"name":"Palazzuolo","place":"locality","population":null,"population:date":null,"source:population":null,"wikidata":null},"geometry":{"type":"Point","coordinates":[12.1843578,43.1176703]}},{"type":"Feature","properties":{"id":"node/2940219920","@id":"node/2940219920","ele":null,"istat_id":null,"name":"Zocco","place":"locality","population":null,"population:date":null,"source:population":null,"wikidata":null},"geometry":{"type":"Point","coordinates":[12.1678135,43.1291892]}},{"type":"Feature","properties":{"id":"node/3399584985","@id":"node/3399584985","ele":"411","istat_id":"5402610001","name":"Agello","place":"village","population":"881","population:date":"2021-12-31","source:population":"Istat 2021 census","wikidata":"Q392408"},"geometry":{"type":"Point","coordinates":[12.2383101,43.0704875]}},{"type":"Feature","properties":{"id":"node/3839837551","@id":"node/3839837551","ele":"328","istat_id":"5402610014","name":"Villa","place":"village","population":"819","population:date":"2021-12-31","source:population":"Istat 2021 census","wikidata":null},"geometry":{"type":"Point","coordinates":[12.2506446,43.1469926]}},{"type":"Feature","properties":{"id":"node/3839881172","@id":"node/3839881172","ele":"302","istat_id":"5402626607","name":"Le Rocce","place":"hamlet","population":"40","population:date":"2021-12-31","source:population":"Istat 2021 census","wikidata":"Q18492988"},"geometry":{"type":"Point","coordinates":[12.2454448,43.1515871]}},{"type":"Feature","properties":{"id":"node/3839924963","@id":"node/3839924963","ele":"315","istat_id":"5402610002","name":"Collesanto","place":"hamlet","population":"82","population:date":"2021-12-31","source:population":"Istat 2021 census","wikidata":"Q18492657"},"geometry":{"type":"Point","coordinates":[12.2641881,43.151407]}},{"type":"Feature","properties":{"id":"node/3839924964","@id":"node/3839924964","ele":"373","istat_id":"5402620001","name":"Antria","place":"hamlet","population":"34","population:date":"2021-12-31","source:population":"Istat 2021 census","wikidata":"Q18492121"},"geometry":{"type":"Point","coordinates":[12.2587352,43.1558058]}},{"type":"Feature","properties":{"id":"node/4003815589","@id":"node/4003815589","ele":"446","istat_id":"5402626602","name":"Caligiana","place":"hamlet","population":"8","population:date":"2021-12-31","source:population":"Istat 2021 census","wikidata":"Q18492274"},"geometry":{"type":"Point","coordinates":[12.2539939,43.1726744]}},{"type":"Feature","properties":{"id":"node/4003815590","@id":"node/4003815590","ele":"238","istat_id":"5402620003","name":"Canale","place":"hamlet","population":"48","population:date":"2021-12-31","source:population":"Istat 2021 census","wikidata":"Q18492304"},"geometry":{"type":"Point","coordinates":[12.2242458,43.1256126]}},{"type":"Feature","properties":{"id":"node/4003815591","@id":"node/4003815591","ele":"508","istat_id":"5402620009","name":"Col di Selva","place":"hamlet","population":"6","population:date":"2021-12-31","source:population":"Istat 2021 census","wikidata":"Q18492599"},"geometry":{"type":"Point","coordinates":[12.2894035,43.1911223]}},{"type":"Feature","properties":{"id":"node/4003815592","@id":"node/4003815592","ele":"243","istat_id":"5402626604","name":"Il Colle","place":"hamlet","population":"13","population:date":"2021-12-31","source:population":"Istat 2021 census","wikidata":"Q18492900"},"geometry":{"type":"Point","coordinates":[12.2389732,43.1000709]}},{"type":"Feature","properties":{"id":"node/4003815593","@id":"node/4003815593","ele":"243","istat_id":"5402620005","name":"La Valle","place":"hamlet","population":"72","population:date":"2021-12-31","source:population":"Istat 2021 census","wikidata":"Q18492961"},"geometry":{"type":"Point","coordinates":[12.23265,43.1235583]}},{"type":"Feature","properties":{"id":"node/4003815594","@id":"node/4003815594","ele":"338","istat_id":"5402610007","name":"Monte Sperello","place":"hamlet","population":"40","population:date":"2021-12-31","source:population":"Istat 2021 census","wikidata":"Q18493157"},"geometry":{"type":"Point","coordinates":[12.2288581,43.1243338]}},{"type":"Feature","properties":{"id":"node/4003815595","@id":"node/4003815595","ele":"299","istat_id":"5402610009","name":"San Savino","place":"village","population":"714","population:date":"2021-12-31","source:population":"Istat 2021 census","wikidata":"Q3947935"},"geometry":{"type":"Point","coordinates":[12.1904066,43.1046667]}},{"type":"Feature","properties":{"id":"node/4003815596","@id":"node/4003815596","ele":"286","istat_id":"5402610010","name":"Sant'Arcangelo","place":"village","population":"858","population:date":"2021-12-31","source:population":"Istat 2021 census","wikidata":"Q3948795"},"geometry":{"type":"Point","coordinates":[12.1536812,43.0820126]}},{"type":"Feature","properties":{"id":"node/4003815597","@id":"node/4003815597","ele":"247","istat_id":"5402610011","name":"Soccorso","place":"village","population":"1062","population:date":"2021-12-31","source:population":"Istat 2021 census","wikidata":"Q18494054"},"geometry":{"type":"Point","coordinates":[12.2351863,43.1388407]}},{"type":"Feature","properties":{"id":"node/4003815598","@id":"node/4003815598","ele":"247","istat_id":"5402626711","name":"Valle Lupina","place":"hamlet","population":"7","population:date":"2021-12-31","source:population":"Istat 2021 census","wikidata":"Q18494303"},"geometry":{"type":"Point","coordinates":[12.2379968,43.0898756]}},{"type":"Feature","properties":{"id":"node/4003815599","@id":"node/4003815599","ele":"285","istat_id":"5402610013","name":"Vignaia","place":"hamlet","population":"144","population:date":"2021-12-31","source:population":"Istat 2021 census","wikidata":"Q18494361"},"geometry":{"type":"Point","coordinates":[12.2577431,43.085282]}},{"type":"Feature","properties":{"id":"node/4352040956","@id":"node/4352040956","ele":"299","istat_id":"5402620006","name":"Le Piagge","place":"hamlet","population":"66","population:date":"2021-12-31","source:population":"Istat 2021 census","wikidata":"Q18492984"},"geometry":{"type":"Point","coordinates":[12.1857757,43.1113968]}},{"type":"Feature","properties":{"id":"node/5618154065","@id":"node/5618154065","ele":null,"istat_id":null,"name":"Punta del lago","place":"neighbourhood","population":null,"population:date":null,"source:population":null,"wikidata":null},"geometry":{"type":"Point","coordinates":[12.1597999,43.1438924]}},{"type":"Feature","properties":{"id":"node/12120420397","@id":"node/12120420397","ele":"280","istat_id":"5402630001","name":"Osteria San Martino","place":"hamlet","population":"5","population:date":"2021-12-31","source:population":"Istat 2021 census","wikidata":null},"geometry":{"type":"Point","coordinates":[12.2501181,43.0546426]}},{"type":"Feature","properties":{"id":"node/12120420398","@id":"node/12120420398","ele":"252","istat_id":"5402640015","name":"Macerone","place":"hamlet","population":"12","population:date":"2021-12-31","source:population":"Istat 2021 census","wikidata":null},"geometry":{"type":"Point","coordinates":[12.2707551,43.1452244]}},{"type":"Feature","properties":{"id":"node/12666659388","@id":"node/12666659388","ele":null,"istat_id":null,"name":"Belvedere","place":"locality","population":null,"population:date":null,"source:population":null,"wikidata":null},"geometry":{"type":"Point","coordinates":[12.1912622,43.1134489]}},{"type":"Feature","properties":{"id":"node/12666659389","@id":"node/12666659389","ele":null,"istat_id":null,"name":"Dirindello","place":"hamlet","population":null,"population:date":null,"source:population":null,"wikidata":null},"geometry":{"type":"Point","coordinates":[12.1997541,43.1061137]}},{"type":"Feature","properties":{"id":"node/12704618948","@id":"node/12704618948","ele":null,"istat_id":null,"name":"Cenaioli","place":"hamlet","population":null,"population:date":null,"source:population":null,"wikidata":null},"geometry":{"type":"Point","coordinates":[12.1533482,43.0778469]}},{"type":"Feature","properties":{"id":"node/12704618949","@id":"node/12704618949","ele":null,"istat_id":null,"name":"Bartocciami","place":"hamlet","population":null,"population:date":null,"source:population":null,"wikidata":null},"geometry":{"type":"Point","coordinates":[12.1550536,43.0805574]}}]}