{"type":"FeatureCollection","name":"sexport","crs":{"type":"name","properties":{"name":"urn:ogc:def:crs:OGC:1.3:CRS84"}},"xy_coordinate_resolution":1e-15,"features":[{"type":"Feature","properties":{"id":"relation/42199","@id":"relation/42199","ele":null,"istat_id":null,"name":"Montefalco","place":null,"population":"5326","population:date":"01-01-2024","source:population":"https://esploradati.istat.it/","wikidata":"Q20478"},"geometry":{"type":"Polygon","coordinates":[[[12.5855726,42.8998561],[12.5836761,42.8963231],[12.5848522,42.8947735],[12.5852001,42.8915212],[12.5839834,42.8894525],[12.5824176,42.8874982],[12.5796126,42.8843086],[12.5787043,42.883171],[12.578276,42.8797765],[12.580558,42.8758694],[12.5836628,42.8719184],[12.5846985,42.8717554],[12.5878416,42.8667587],[12.5889087,42.8676932],[12.5898866,42.8683423],[12.5902292,42.8677192],[12.5934763,42.8657624],[12.5968821,42.8653537],[12.5996301,42.8636195],[12.6009991,42.8630362],[12.6042894,42.8647198],[12.6049421,42.8639474],[12.6082055,42.8596306],[12.6083892,42.8593187],[12.6116574,42.8558391],[12.6128759,42.85567],[12.6163908,42.8533709],[12.6175824,42.8519827],[12.6192038,42.8521249],[12.6196519,42.8519532],[12.6198777,42.8521126],[12.6203949,42.8520242],[12.6224848,42.8479783],[12.624297,42.8453863],[12.6250849,42.8421109],[12.6286396,42.8412824],[12.6324868,42.8414888],[12.6376482,42.8434497],[12.6403422,42.8437196],[12.6443378,42.8424447],[12.6473256,42.8441453],[12.6486402,42.8439908],[12.649537,42.84457],[12.6522914,42.8445541],[12.6548438,42.8440178],[12.6558752,42.8445701],[12.6566071,42.843975],[12.6577371,42.8445015],[12.6585637,42.8437098],[12.6602869,42.842124],[12.6607257,42.8399355],[12.6644943,42.8392925],[12.6687143,42.8376761],[12.6728587,42.8380743],[12.6764118,42.8376449],[12.6791628,42.8354136],[12.6802872,42.8348416],[12.684789,42.835453],[12.6882293,42.8360353],[12.6908942,42.8364491],[12.6923289,42.8371207],[12.6952223,42.8401944],[12.6921991,42.8418543],[12.6929249,42.8443429],[12.6915158,42.8460541],[12.6920918,42.8483135],[12.6924059,42.8487715],[12.6951159,42.8522495],[12.6964152,42.8564348],[12.6990528,42.8602527],[12.6994492,42.864107],[12.7003541,42.8657434],[12.7000304,42.8665462],[12.700999,42.8710661],[12.7013735,42.8725893],[12.7021067,42.879458],[12.7021061,42.8850008],[12.7023532,42.8884043],[12.7030685,42.8935493],[12.7028821,42.8969137],[12.701865,42.9022049],[12.700125,42.9045302],[12.6949269,42.9088577],[12.6895332,42.9111596],[12.6881114,42.9117612],[12.6833446,42.9109488],[12.679969,42.9115734],[12.6780629,42.9120895],[12.6757992,42.9126575],[12.6715285,42.9138392],[12.666676,42.9151654],[12.6634536,42.9161601],[12.6534408,42.9194878],[12.6491471,42.9212276],[12.6479854,42.9219802],[12.639577,42.9279884],[12.6344587,42.9262874],[12.6321347,42.9255464],[12.6331085,42.9231745],[12.6316157,42.9211871],[12.6292539,42.919853],[12.6275727,42.9195822],[12.6233809,42.915803],[12.6201346,42.9126014],[12.6180335,42.9115244],[12.6154273,42.9079378],[12.6117821,42.9052708],[12.6078997,42.9062173],[12.6034218,42.9076415],[12.6022644,42.9081147],[12.6005046,42.9076974],[12.5996298,42.9074909],[12.5955883,42.9056057],[12.5914902,42.9032674],[12.5881104,42.9013522],[12.5855726,42.8998561]]]}},{"type":"Feature","properties":{"id":"node/2136965709","@id":"node/2136965709","ele":"228","istat_id":"5403010010","name":"San Luca","place":"hamlet","population":"136","population:date":"2021-12-31","source:population":"Istat 2021 census","wikidata":"Q18785557"},"geometry":{"type":"Point","coordinates":[12.6890169,42.8620976]}},{"type":"Feature","properties":{"id":"node/2136967782","@id":"node/2136967782","ele":"232","istat_id":null,"name":"Madonna della Stella","place":"hamlet","population":null,"population:date":null,"source:population":null,"wikidata":null},"geometry":{"type":"Point","coordinates":[12.6838929,42.8558856]}},{"type":"Feature","properties":{"id":"node/3890171404","@id":"node/3890171404","ele":"390","istat_id":"5403010001","name":"Camiano Grande","place":"hamlet","population":"87","population:date":"2021-12-31","source:population":"Istat 2021 census","wikidata":"Q18492280"},"geometry":{"type":"Point","coordinates":[12.6621314,42.8937794]}},{"type":"Feature","properties":{"id":"node/3890171405","@id":"node/3890171405","ele":"398","istat_id":"5403020004","name":"Camiano Piccolo","place":"hamlet","population":"32","population:date":"2021-12-31","source:population":"Istat 2021 census","wikidata":"Q18492282"},"geometry":{"type":"Point","coordinates":[12.6587553,42.8917586]}},{"type":"Feature","properties":{"id":"node/4005500479","@id":"node/4005500479","ele":"232","istat_id":"5403026601","name":"Argentella","place":"hamlet","population":"33","population:date":"2021-12-31","source:population":"Istat 2021 census","wikidata":"Q18492127"},"geometry":{"type":"Point","coordinates":[12.6777737,42.8494547]}},{"type":"Feature","properties":{"id":"node/4005500480","@id":"node/4005500480","ele":"323","istat_id":"5403026602","name":"Belvedere","place":"hamlet","population":"32","population:date":"2021-12-31","source:population":"Istat 2021 census","wikidata":null},"geometry":{"type":"Point","coordinates":[12.6376219,42.9132258]}},{"type":"Feature","properties":{"id":"node/4005500481","@id":"node/4005500481","ele":"236","istat_id":"5403026603","name":"Borghetto","place":"hamlet","population":"17","population:date":"2021-12-31","source:population":"Istat 2021 census","wikidata":null},"geometry":{"type":"Point","coordinates":[12.680677,42.8519544]}},{"type":"Feature","properties":{"id":"node/4005500482","@id":"node/4005500482","ele":"360","istat_id":"5403010002","name":"Casale","place":"hamlet","population":"148","population:date":"2021-12-31","source:population":"Istat 2021 census","wikidata":null},"geometry":{"type":"Point","coordinates":[12.6178943,42.8821306]}},{"type":"Feature","properties":{"id":"node/4005500483","@id":"node/4005500483","ele":"409","istat_id":"5403010003","name":"Cerrete","place":"hamlet","population":"125","population:date":"2021-12-31","source:population":"Istat 2021 census","wikidata":"Q18492550"},"geometry":{"type":"Point","coordinates":[12.63937,42.8808474]}},{"type":"Feature","properties":{"id":"node/4005500484","@id":"node/4005500484","ele":"362","istat_id":"5403026606","name":"Colle Arfuso","place":"hamlet","population":"8","population:date":"2021-12-31","source:population":"Istat 2021 census","wikidata":"Q18492615"},"geometry":{"type":"Point","coordinates":[12.6549795,42.8778409]}},{"type":"Feature","properties":{"id":"node/4005500485","@id":"node/4005500485","ele":"320","istat_id":"5403020007","name":"Colle San Clemente","place":"hamlet","population":"85","population:date":"2021-12-31","source:population":"Istat 2021 census","wikidata":"Q18492631"},"geometry":{"type":"Point","coordinates":[12.6540815,42.9017072]}},{"type":"Feature","properties":{"id":"node/4005500486","@id":"node/4005500486","ele":"341","istat_id":"5403020008","name":"Cortignano","place":"hamlet","population":"52","population:date":"2021-12-31","source:population":"Istat 2021 census","wikidata":"Q18492704"},"geometry":{"type":"Point","coordinates":[12.6428187,42.8600303]}},{"type":"Feature","properties":{"id":"node/4005500487","@id":"node/4005500487","ele":"288","istat_id":"5403010004","name":"Fabbri","place":"hamlet","population":"134","population:date":"2021-12-31","source:population":"Istat 2021 census","wikidata":"Q3737481"},"geometry":{"type":"Point","coordinates":[12.685412,42.8732084]}},{"type":"Feature","properties":{"id":"node/4005500488","@id":"node/4005500488","ele":"226","istat_id":"5403010005","name":"Fratta","place":"hamlet","population":"144","population:date":"2021-12-31","source:population":"Istat 2021 census","wikidata":"Q18492824"},"geometry":{"type":"Point","coordinates":[12.687205,42.8453262]}},{"type":"Feature","properties":{"id":"node/4005502689","@id":"node/4005502689","ele":"295","istat_id":null,"name":"Gallo","place":"hamlet","population":null,"population:date":null,"source:population":null,"wikidata":"Q18492841"},"geometry":{"type":"Point","coordinates":[12.6616405,42.8743054]}},{"type":"Feature","properties":{"id":"node/4005502690","@id":"node/4005502690","ele":"233","istat_id":"5403026610","name":"Il Piano","place":"hamlet","population":"21","population:date":"2021-12-31","source:population":"Istat 2021 census","wikidata":"Q18492906"},"geometry":{"type":"Point","coordinates":[12.6764265,42.8422369]}},{"type":"Feature","properties":{"id":"node/4005502691","@id":"node/4005502691","ele":"389","istat_id":"5403020013","name":"Lasignano","place":"hamlet","population":"35","population:date":"2021-12-31","source:population":"Istat 2021 census","wikidata":"Q18492974"},"geometry":{"type":"Point","coordinates":[12.6494488,42.8801335]}},{"type":"Feature","properties":{"id":"node/4005502692","@id":"node/4005502692","ele":"242","istat_id":"5403010006","name":"Mercatello","place":"neighbourhood","population":"11","population:date":"2021-12-31","source:population":"Istat 2021 census","wikidata":null},"geometry":{"type":"Point","coordinates":[12.6795342,42.8357752]}},{"type":"Feature","properties":{"id":"node/4005502693","@id":"node/4005502693","ele":"366","istat_id":"5403010008","name":"Montepennino","place":"hamlet","population":"492","population:date":"2021-12-31","source:population":"Istat 2021 census","wikidata":"Q18493187"},"geometry":{"type":"Point","coordinates":[12.6435173,42.9075374]}},{"type":"Feature","properties":{"id":"node/4005502694","@id":"node/4005502694","ele":"397","istat_id":"5403010009","name":"Pietrauta","place":"hamlet","population":"170","population:date":"2021-12-31","source:population":"Istat 2021 census","wikidata":"Q18493448"},"geometry":{"type":"Point","coordinates":[12.6292167,42.8941257]}},{"type":"Feature","properties":{"id":"node/4005502695","@id":"node/4005502695","ele":"325","istat_id":"5403026615","name":"Poggetto","place":"hamlet","population":"17","population:date":"2021-12-31","source:population":"Istat 2021 census","wikidata":"Q18493495"},"geometry":{"type":"Point","coordinates":[12.6665065,42.8816226]}},{"type":"Feature","properties":{"id":"node/4005502696","@id":"node/4005502696","ele":"405","istat_id":"5403026616","name":"Rignano","place":"hamlet","population":"16","population:date":"2021-12-31","source:population":"Istat 2021 census","wikidata":"Q18493678"},"geometry":{"type":"Point","coordinates":[12.6365657,42.8851359]}},{"type":"Feature","properties":{"id":"node/4005502697","@id":"node/4005502697","ele":"420","istat_id":null,"name":"San Fortunato","place":"neighbourhood","population":null,"population:date":null,"source:population":null,"wikidata":"Q18493783"},"geometry":{"type":"Point","coordinates":[12.6570013,42.8851054]}},{"type":"Feature","properties":{"id":"node/4005502698","@id":"node/4005502698","ele":"347","istat_id":"5403010011","name":"Turri","place":"hamlet","population":"101","population:date":"2021-12-31","source:population":"Istat 2021 census","wikidata":"Q18494259"},"geometry":{"type":"Point","coordinates":[12.6659106,42.8873799]}},{"type":"Feature","properties":{"id":"node/4005502699","@id":"node/4005502699","ele":"309","istat_id":"5403010012","name":"Turrita","place":"hamlet","population":"346","population:date":"2021-12-31","source:population":"Istat 2021 census","wikidata":"Q4000711"},"geometry":{"type":"Point","coordinates":[12.6582213,42.8693601]}},{"type":"Feature","properties":{"id":"node/4005502700","@id":"node/4005502700","ele":"220","istat_id":"5403020021","name":"Valle Cupa","place":"hamlet","population":"27","population:date":"2021-12-31","source:population":"Istat 2021 census","wikidata":"Q18494300"},"geometry":{"type":"Point","coordinates":[12.6420418,42.917641]}},{"type":"Feature","properties":{"id":"node/4005502701","@id":"node/4005502701","ele":"390","istat_id":"5403026619","name":"Vecciano","place":"hamlet","population":"11","population:date":"2021-12-31","source:population":"Istat 2021 census","wikidata":"Q18494328"},"geometry":{"type":"Point","coordinates":[12.6572459,42.8961723]}},{"type":"Feature","properties":{"id":"node/4005502702","@id":"node/4005502702","ele":"250","istat_id":"5403026620","name":"Vigliano","place":"hamlet","population":"14","population:date":"2021-12-31","source:population":"Istat 2021 census","wikidata":"Q18494358"},"geometry":{"type":"Point","coordinates":[12.6829879,42.8698741]}}]}