{"type":"FeatureCollection","generator":"overpass-turbo","copyright":"The data included in this document is from www.openstreetmap.org. The data is made available under ODbL.","timestamp":"2025-09-09T13:58:16Z","features":[{"type":"Feature","properties":{"@id":"relation/42278","name":"Perugia","population":"162527","population:date":"01-01-2024","source:population":"https://esploradati.istat.it/","wikidata":"Q3437"},"geometry":{"type":"Polygon","coordinates":[[[12.4974183,43.0691403],[12.4980831,43.0712848],[12.497317,43.0732125],[12.4950223,43.0759065],[12.4933836,43.0763667],[12.4934169,43.0785045],[12.4918454,43.0808934],[12.4904338,43.0817604],[12.4931524,43.0882951],[12.4932102,43.0892973],[12.5009102,43.0881478],[12.5051244,43.0872443],[12.508556,43.0913888],[12.5107168,43.0908137],[12.5134096,43.0965158],[12.5186067,43.1065617],[12.519233,43.1084017],[12.5235782,43.1161505],[12.5252093,43.1198862],[12.5298954,43.1281417],[12.5284744,43.1312922],[12.5303653,43.1334937],[12.5338311,43.1350478],[12.5354624,43.1351549],[12.5371492,43.1366513],[12.5385058,43.1392789],[12.5423562,43.1423064],[12.5416861,43.14319],[12.5438415,43.1433442],[12.5442547,43.1424858],[12.5510822,43.1427198],[12.5547314,43.1434302],[12.5594771,43.143449],[12.5609298,43.1415352],[12.5628945,43.1406595],[12.5649533,43.1436205],[12.5627328,43.1459406],[12.5635921,43.1478586],[12.5632648,43.1496755],[12.5607244,43.151635],[12.5580931,43.1526273],[12.5585857,43.1537478],[12.557111,43.1550324],[12.5574721,43.1574953],[12.5542255,43.1580096],[12.5524501,43.1614319],[12.552032,43.1638849],[12.5549747,43.1666115],[12.5539203,43.1699036],[12.5548269,43.1721173],[12.5546513,43.1737525],[12.5617153,43.1731138],[12.5623128,43.1747912],[12.561264,43.1769994],[12.5585331,43.1851008],[12.5574452,43.1876256],[12.5580897,43.1949253],[12.5582951,43.2003218],[12.5564754,43.2042083],[12.5542562,43.2036837],[12.5504933,43.2014603],[12.5487304,43.2012787],[12.5399938,43.1984708],[12.5384035,43.1966988],[12.5339276,43.1956305],[12.5326049,43.1963555],[12.5331615,43.1975942],[12.5309923,43.1982597],[12.5276339,43.2033563],[12.5263194,43.2045777],[12.5271342,43.2069544],[12.528559,43.2084688],[12.5311238,43.2127133],[12.5290434,43.2145412],[12.5238009,43.2147066],[12.5216375,43.2138046],[12.5162279,43.2124177],[12.5112904,43.2130486],[12.5083805,43.2143719],[12.5032641,43.2145053],[12.5009229,43.2130376],[12.4965844,43.2119638],[12.4935918,43.2107813],[12.4912488,43.211251],[12.4878255,43.2142033],[12.4834653,43.2151601],[12.4816232,43.2139207],[12.4769852,43.2180234],[12.4702205,43.2216541],[12.4640799,43.224555],[12.4578658,43.2307086],[12.461254,43.2312983],[12.4627076,43.2332941],[12.4653074,43.2338464],[12.4668233,43.2356093],[12.469023,43.2369111],[12.4682827,43.2378292],[12.4700544,43.2396619],[12.4709235,43.2395004],[12.4751891,43.2426931],[12.4759676,43.2426722],[12.477168,43.2478415],[12.4791045,43.2507228],[12.4799099,43.2548877],[12.4831366,43.2584973],[12.4792521,43.2615722],[12.4764042,43.2633284],[12.4607268,43.2646552],[12.4581308,43.2652285],[12.4559924,43.2676931],[12.4544485,43.2683611],[12.4515953,43.2670652],[12.450326,43.2657344],[12.4466904,43.2666391],[12.443608,43.2663947],[12.4425621,43.2673166],[12.4450112,43.2721079],[12.4443981,43.2748132],[12.4419282,43.275163],[12.4396698,43.2747043],[12.4392921,43.2767563],[12.4373589,43.2798879],[12.4333607,43.2840462],[12.433051,43.2855815],[12.4249059,43.2847573],[12.4204176,43.2858987],[12.4188237,43.2851199],[12.4156335,43.2851943],[12.4131416,43.2860719],[12.4104551,43.284755],[12.4100738,43.2834066],[12.4073118,43.2827462],[12.4061052,43.2803164],[12.4028176,43.2754697],[12.4015381,43.2702584],[12.4002111,43.2698474],[12.3976145,43.2658381],[12.3961277,43.2645678],[12.3958319,43.2627765],[12.3945713,43.2617959],[12.3941841,43.2592639],[12.3925891,43.2571612],[12.3906749,43.2564062],[12.3894265,43.2545342],[12.386464,43.2555764],[12.3837129,43.2541587],[12.3795727,43.2537141],[12.378698,43.2507835],[12.3758873,43.2500955],[12.3763567,43.247196],[12.3753017,43.2436962],[12.3783501,43.2401781],[12.3782773,43.2388618],[12.3753254,43.234184],[12.3716705,43.2309036],[12.3699598,43.2284512],[12.3659752,43.2326147],[12.3618183,43.2320678],[12.3594102,43.2362171],[12.3559343,43.236857],[12.3537529,43.2386704],[12.350665,43.2421465],[12.3476449,43.2432695],[12.3428431,43.2444365],[12.3407655,43.2479538],[12.3388589,43.2482348],[12.336709,43.2469831],[12.3338199,43.2477919],[12.3316791,43.2457838],[12.3323479,43.2440435],[12.331535,43.2431139],[12.329324,43.2427799],[12.3252946,43.2409254],[12.323808,43.2423898],[12.3209284,43.2419776],[12.3198618,43.2400463],[12.3169751,43.2369449],[12.3128359,43.2360502],[12.3105538,43.2350871],[12.3076044,43.2363458],[12.3060151,43.2351845],[12.3013817,43.2360658],[12.2988048,43.2371757],[12.2955569,43.2353916],[12.2968255,43.232875],[12.2961324,43.2298172],[12.2972733,43.2258058],[12.2983888,43.2241079],[12.2979162,43.22122],[12.3021139,43.2193518],[12.3044993,43.2158604],[12.3075461,43.214325],[12.3080998,43.2152563],[12.310785,43.213879],[12.3152009,43.2137822],[12.3186718,43.2117277],[12.3170576,43.2087087],[12.3167588,43.2038239],[12.3157234,43.2050154],[12.3102098,43.204983],[12.3052653,43.2030162],[12.3002087,43.1994865],[12.2980895,43.1952792],[12.2999106,43.1941438],[12.3008673,43.1917055],[12.301653,43.1867455],[12.2992207,43.1807351],[12.2976915,43.1797683],[12.2975934,43.176357],[12.2992846,43.1746112],[12.3007266,43.1745018],[12.3009525,43.1717583],[12.3071672,43.1678868],[12.3084168,43.1664865],[12.3086941,43.1677204],[12.3104385,43.1680626],[12.3121283,43.1697731],[12.3118662,43.1731667],[12.3166265,43.1727273],[12.3168529,43.1733126],[12.3215054,43.1687496],[12.323844,43.1674153],[12.3265564,43.1669324],[12.3288394,43.1645015],[12.3293327,43.1610563],[12.3336529,43.158092],[12.3408563,43.1548585],[12.3384523,43.1526863],[12.3389697,43.1515968],[12.337977,43.1500023],[12.3383948,43.1466691],[12.3362175,43.1431427],[12.3323904,43.1409624],[12.3307779,43.141251],[12.3307553,43.137834],[12.3334356,43.1373844],[12.3319064,43.1365228],[12.3274582,43.1366921],[12.324403,43.1358795],[12.321026,43.1330366],[12.3173764,43.1329077],[12.3156458,43.1313895],[12.3159135,43.1279966],[12.31398,43.125686],[12.3106724,43.1279667],[12.3092166,43.1256423],[12.3113264,43.1238119],[12.3103741,43.1233925],[12.3118512,43.1216254],[12.3111421,43.1205552],[12.312301,43.1193991],[12.3133361,43.1155657],[12.3135082,43.1118893],[12.314653,43.1092517],[12.3170468,43.1072866],[12.3191578,43.1038536],[12.3208331,43.1041946],[12.3194485,43.1004215],[12.315703,43.0965132],[12.317834,43.0955457],[12.3163136,43.0907564],[12.3134744,43.0881498],[12.3153822,43.0877536],[12.3168012,43.0822396],[12.3181347,43.0815658],[12.3217777,43.0775227],[12.3184713,43.0751701],[12.3164455,43.0728904],[12.3165074,43.0710306],[12.3062253,43.0662921],[12.294029,43.0609019],[12.2923819,43.0636391],[12.2873435,43.0622196],[12.2865195,43.0581202],[12.2819405,43.0592154],[12.2818815,43.0604407],[12.283834,43.0645454],[12.2834508,43.0660612],[12.2842921,43.0686867],[12.2900466,43.0731826],[12.2927158,43.0744987],[12.2946244,43.0762297],[12.2938196,43.0777684],[12.2892872,43.076673],[12.2878395,43.0744748],[12.2847698,43.0744729],[12.2834063,43.0754461],[12.2813229,43.0747226],[12.2774155,43.0777398],[12.2735101,43.0745757],[12.2663748,43.0742883],[12.2652917,43.072237],[12.2631649,43.0699577],[12.2663486,43.0653751],[12.2631579,43.0623513],[12.2631317,43.0616273],[12.2599294,43.057578],[12.2619567,43.0552808],[12.2498775,43.052745],[12.2500175,43.0518162],[12.2477568,43.0522234],[12.2440505,43.0517496],[12.2415107,43.0523354],[12.236745,43.0520737],[12.2350601,43.0539467],[12.2313443,43.0559875],[12.2282587,43.0558541],[12.2268965,43.0564036],[12.2282718,43.0578613],[12.2251838,43.0603361],[12.2222314,43.0632882],[12.2192444,43.0672091],[12.2180435,43.0668505],[12.2162328,43.0693035],[12.2133278,43.0713128],[12.2090687,43.0725708],[12.2049099,43.0726194],[12.2020575,43.0732053],[12.1997837,43.0723594],[12.1975439,43.0723502],[12.1911633,43.0696781],[12.1873252,43.0693097],[12.1860881,43.0674757],[12.1887951,43.0640163],[12.1915546,43.0625166],[12.1922042,43.0608373],[12.1951014,43.0591401],[12.1980782,43.0556714],[12.2004589,43.0553797],[12.2020129,43.0500778],[12.2022601,43.0446743],[12.2016706,43.0441808],[12.1977914,43.0460992],[12.1910381,43.0460898],[12.1873632,43.046512],[12.1825718,43.0450337],[12.1789401,43.0414972],[12.1775337,43.0392222],[12.1765348,43.0358408],[12.1768649,43.0343508],[12.1744779,43.0332745],[12.1731207,43.0314651],[12.1746506,43.0287857],[12.1780065,43.0262163],[12.1788706,43.0248732],[12.18128,43.0173747],[12.1788719,43.0146675],[12.1788665,43.0114573],[12.1807216,43.0085419],[12.187916,43.0102467],[12.1906446,43.0121609],[12.1913909,43.0086931],[12.1927402,43.0071162],[12.1926116,43.0050366],[12.1943265,43.0033323],[12.2022765,43.0040718],[12.2067737,43.0051362],[12.2081583,43.0072049],[12.2155506,43.0056383],[12.2187459,43.0064679],[12.220423,43.0054642],[12.2217672,43.0058033],[12.2265213,43.0026563],[12.2298605,43.0024572],[12.229699,43.0043295],[12.2335155,43.0056286],[12.2362795,43.00725],[12.2376316,43.0108965],[12.2408594,43.0130279],[12.2379163,43.0170196],[12.2369668,43.021861],[12.2400165,43.0229073],[12.2404755,43.0236779],[12.2398085,43.0269317],[12.2409248,43.028791],[12.2392044,43.0315271],[12.2413921,43.0373968],[12.2447626,43.0370999],[12.2464847,43.0376366],[12.2481809,43.0369706],[12.2485971,43.034776],[12.2524277,43.0355268],[12.2542611,43.0341738],[12.2539769,43.0329759],[12.2560587,43.0329008],[12.25893,43.0340232],[12.2657993,43.0337059],[12.2688939,43.033951],[12.2680259,43.0295987],[12.2667676,43.0264895],[12.2703357,43.0254493],[12.2736427,43.0274011],[12.2781597,43.0313445],[12.2800642,43.0318535],[12.2844723,43.0361948],[12.2869807,43.0379066],[12.2896012,43.0407691],[12.2960267,43.043582],[12.2987632,43.0442364],[12.3007993,43.0418984],[12.3005086,43.0403617],[12.303909,43.0385186],[12.3048043,43.0352441],[12.3073275,43.0333316],[12.3104459,43.0298753],[12.3137529,43.0290481],[12.318401,43.0356088],[12.3194525,43.0345754],[12.3233795,43.0353022],[12.324924,43.0349962],[12.3259711,43.0334269],[12.3310742,43.0297463],[12.3320994,43.0284646],[12.3330929,43.0250715],[12.3315663,43.0208677],[12.3295258,43.017838],[12.32709,43.0164214],[12.3242632,43.0139987],[12.3278829,43.0130678],[12.3299369,43.0120353],[12.3307286,43.0133009],[12.3322115,43.0130608],[12.3401733,43.0093339],[12.3420675,43.0078022],[12.3442848,43.0079527],[12.3446576,43.0067053],[12.3436063,43.0040705],[12.3434704,42.9993069],[12.3426571,42.9964794],[12.3447011,42.9955184],[12.3493328,42.9942842],[12.356406,42.9938896],[12.3575841,42.9934486],[12.3601336,42.9945655],[12.3622193,42.9944831],[12.3637248,42.9973586],[12.3639587,43.0000761],[12.3647227,43.0010599],[12.3652664,43.0051855],[12.3666193,43.0079199],[12.3672628,43.0123036],[12.3684034,43.0165601],[12.3689181,43.0214502],[12.3707653,43.023856],[12.3745685,43.022415],[12.3766217,43.022255],[12.3786854,43.0209832],[12.3803867,43.0220262],[12.3810335,43.0236978],[12.3839993,43.0229283],[12.3867059,43.0213892],[12.3885135,43.0196601],[12.3939632,43.0175889],[12.3935015,43.0168881],[12.3985636,43.0151796],[12.4065085,43.0164258],[12.4065093,43.0209145],[12.4097417,43.0207281],[12.4123297,43.0227128],[12.4134012,43.0247793],[12.4128164,43.0263853],[12.4158366,43.0268057],[12.4154713,43.0301933],[12.4143666,43.0319845],[12.4138947,43.0352579],[12.4151655,43.0362464],[12.4178567,43.0358193],[12.4215136,43.0384381],[12.4260867,43.03786],[12.4312467,43.043211],[12.4321213,43.0454867],[12.4270523,43.0486491],[12.4260336,43.0497421],[12.4289022,43.0547297],[12.4279685,43.0558202],[12.425994,43.0558884],[12.4231279,43.0544841],[12.4199837,43.0546998],[12.4190303,43.0558943],[12.4230697,43.0596406],[12.42675,43.0641898],[12.4308023,43.0670485],[12.4352638,43.0727667],[12.4368311,43.0764512],[12.4409398,43.0788649],[12.4458086,43.0829867],[12.4490065,43.0840368],[12.4490945,43.0868105],[12.4483625,43.0895382],[12.4497199,43.0907398],[12.4520973,43.0897382],[12.4532849,43.0877374],[12.4520983,43.0854675],[12.4550007,43.0824649],[12.4570256,43.0816548],[12.4579753,43.0795391],[12.4602536,43.0779125],[12.462752,43.07327],[12.4652377,43.0709996],[12.4703079,43.0732209],[12.4731969,43.0710613],[12.4729578,43.0700911],[12.475469,43.0701784],[12.4793319,43.069129],[12.4795805,43.0708636],[12.4826648,43.070189],[12.4836388,43.0709779],[12.4867295,43.0712784],[12.4881122,43.0700409],[12.4974183,43.0691403],[12.4974183,43.0691403]]]},"id":"relation/42278"},{"type":"Feature","properties":{"@id":"node/37620144","ele":"374","istat_id":"5403910017","name":"Montepetriolo","place":"hamlet","population":"64","population:date":"2021-12-31","source:population":"Istat 2021 census","wikidata":"Q2697417"},"geometry":{"type":"Point","coordinates":[12.2275939,43.0161042]},"id":"node/37620144"},{"type":"Feature","properties":{"@id":"node/68507505"},"geometry":{"type":"Point","coordinates":[12.3890104,43.1119613]},"id":"node/68507505"},{"type":"Feature","properties":{"@id":"node/312446668","ele":"236","istat_id":"5403910004","name":"Casa del Diavolo","place":"village","population":"1379","population:date":"2021-12-31","source:population":"Istat 2021 census","wikidata":"Q18492356"},"geometry":{"type":"Point","coordinates":[12.450892,43.1879256]},"id":"node/312446668"},{"type":"Feature","properties":{"@id":"node/312446680","ele":"270","istat_id":"5403920008","name":"Randolo","place":"hamlet","population":"80","population:date":"2021-12-31","source:population":"Istat 2021 census"},"geometry":{"type":"Point","coordinates":[12.419756,43.232546]},"id":"node/312446680"},{"type":"Feature","properties":{"@id":"node/312446694","ele":"346","istat_id":"5403926709","name":"Castel d'Arno","place":"hamlet","population":"18","population:date":"2021-12-31","source:population":"Istat 2021 census"},"geometry":{"type":"Point","coordinates":[12.5382103,43.1498418]},"id":"node/312446694"},{"type":"Feature","properties":{"@id":"node/312446696","ele":"323","istat_id":"5403910006","name":"Cenerente","place":"hamlet","population":"352","population:date":"2021-12-31","source:population":"Istat 2021 census","wikidata":"Q3664386"},"geometry":{"type":"Point","coordinates":[12.352358,43.1458076]},"id":"node/312446696"},{"type":"Feature","properties":{"@id":"node/312446702","ele":"440","istat_id":"5403910007","name":"Civitella Benazzone","place":"hamlet","population":"171","population:date":"2021-12-31","source:population":"Istat 2021 census","wikidata":"Q3678802"},"geometry":{"type":"Point","coordinates":[12.4476782,43.2046095]},"id":"node/312446702"},{"type":"Feature","properties":{"@id":"node/312446704","ele":"257","istat_id":"5403910010.481","name":"Colombella","place":"village","population":"1358","population:date":"2021-12-31","source:population":"Istat 2021 census","wikidata":"Q2077914"},"geometry":{"type":"Point","coordinates":[12.4899515,43.1580727]},"id":"node/312446704"},{"type":"Feature","properties":{"@id":"node/312446707","ele":"268","istat_id":"5403910009","name":"Colle Umberto","place":"village","population":"605","population:date":"2021-12-31","source:population":"Istat 2021 census","wikidata":"Q3682751"},"geometry":{"type":"Point","coordinates":[12.319155,43.174844]},"id":"node/312446707"},{"type":"Feature","properties":{"@id":"node/312446719","ele":"387","istat_id":"5403920012","name":"Cordigliano","place":"hamlet","population":"38","population:date":"2021-12-31","source:population":"Istat 2021 census","wikidata":"Q3693404"},"geometry":{"type":"Point","coordinates":[12.4191547,43.1621289]},"id":"node/312446719"},{"type":"Feature","properties":{"@id":"node/312446723","ele":"213","istat_id":"5403920014","name":"Fosso del Diavolo","place":"hamlet","population":"541","population:date":"2021-12-31","source:population":"Istat 2021 census"},"geometry":{"type":"Point","coordinates":[12.464558,43.157245]},"id":"node/312446723"},{"type":"Feature","properties":{"@id":"node/312446738","ele":"668","istat_id":"5403910012","name":"Fratticiola Selvatica","place":"village","population":"425","population:date":"2021-12-31","source:population":"Istat 2021 census","wikidata":"Q1829337"},"geometry":{"type":"Point","coordinates":[12.55196,43.188247]},"id":"node/312446738"},{"type":"Feature","properties":{"@id":"node/312446742","ele":"240","istat_id":"5403910014","name":"Sant'Orfeto-La Cinella","place":"village","population":"519","population:date":"2021-12-31","source:population":"Istat 2021 census","wikidata":"Q3948895"},"geometry":{"type":"Point","coordinates":[12.397255,43.258147]},"id":"node/312446742"},{"type":"Feature","properties":{"@id":"node/312446748","ele":"220","istat_id":"5403910013","name":"La Bruna","place":"hamlet","population":"183","population:date":"2021-12-31","source:population":"Istat 2021 census","wikidata":"Q3820681"},"geometry":{"type":"Point","coordinates":[12.387556,43.230946]},"id":"node/312446748"},{"type":"Feature","properties":{"@id":"node/312446757","name":"La Fratticiola-Casacce","place":"hamlet"},"geometry":{"type":"Point","coordinates":[12.427757,43.187546]},"id":"node/312446757"},{"type":"Feature","properties":{"@id":"node/312446765","ele":"290","istat_id":"5403920019","name":"Maestrello","place":"hamlet","population":"180","population:date":"2021-12-31","source:population":"Istat 2021 census","wikidata":"Q18493055"},"geometry":{"type":"Point","coordinates":[12.3194291,43.1888657]},"id":"node/312446765"},{"type":"Feature","properties":{"@id":"node/312446769","ele":"226","istat_id":"5403910020","name":"Ramazzano Le Pulci","place":"village","population":"836","population:date":"2021-12-31","source:population":"Istat 2021 census","wikidata":"Q3929847"},"geometry":{"type":"Point","coordinates":[12.4626853,43.169595]},"id":"node/312446769"},{"type":"Feature","properties":{"@id":"node/312446780","ele":"293","istat_id":"5403910019","name":"Canneto","place":"village","population":"1292","population:date":"2021-12-31","source:population":"Istat 2021 census","wikidata":"Q18493268"},"geometry":{"type":"Point","coordinates":[12.3351759,43.1578221]},"id":"node/312446780"},{"type":"Feature","properties":{"@id":"node/312446787","ele":"331","istat_id":"5403910023","name":"Piccione","place":"village","population":"823","population:date":"2021-12-31","source:population":"Istat 2021 census"},"geometry":{"type":"Point","coordinates":[12.510359,43.181146]},"id":"node/312446787"},{"type":"Feature","properties":{"@id":"node/312446792","ele":"220","istat_id":"5403926623","name":"Parlesca","place":"hamlet","population":"33","population:date":"2021-12-31","source:population":"Istat 2021 census","wikidata":"Q18493330"},"geometry":{"type":"Point","coordinates":[12.4032336,43.225008]},"id":"node/312446792"},{"type":"Feature","properties":{"@id":"node/312446801","ele":"336","istat_id":"5403940001.434","name":"Podere Castellaccio","place":"hamlet","population":"20","population:date":"2021-12-31","source:population":"Istat 2021 census","wikidata":"Q18493491"},"geometry":{"type":"Point","coordinates":[12.345556,43.157444]},"id":"node/312446801"},{"type":"Feature","properties":{"@id":"node/312446815","ele":"278","istat_id":"5403910010.752","name":"Pieve Pagliaccia","place":"village","population":"435","population:date":"2021-12-31","source:population":"Istat 2021 census"},"geometry":{"type":"Point","coordinates":[12.4765886,43.1491127]},"id":"node/312446815"},{"type":"Feature","properties":{"@id":"node/312446820","ele":"330","istat_id":"5403910028","name":"Rancolfo","place":"hamlet","population":"143","population:date":"2021-12-31","source:population":"Istat 2021 census","wikidata":"Q3930008"},"geometry":{"type":"Point","coordinates":[12.427256,43.238947]},"id":"node/312446820"},{"type":"Feature","properties":{"@id":"node/312446822","ele":"225","istat_id":"5403910040","name":"Resina","place":"village","population":"491","population:date":"2021-12-31","source:population":"Istat 2021 census","wikidata":"Q18493676"},"geometry":{"type":"Point","coordinates":[12.4270348,43.2012971]},"id":"node/312446822"},{"type":"Feature","properties":{"@id":"node/312446830","ele":"210","istat_id":"5403910027","name":"Ponte Pattoli","place":"village","population":"1992","population:date":"2021-12-31","source:population":"Istat 2021 census","wikidata":"Q3908009"},"geometry":{"type":"Point","coordinates":[12.429357,43.174445]},"id":"node/312446830"},{"type":"Feature","properties":{"@id":"node/312446841","ele":"585","istat_id":"5403910030","name":"San Giovanni del Pantano","place":"hamlet","population":"70","population:date":"2021-12-31","source:population":"Istat 2021 census","wikidata":"Q18493793"},"geometry":{"type":"Point","coordinates":[12.3258796,43.2228472]},"id":"node/312446841"},{"type":"Feature","properties":{"@id":"node/312446870","ele":"325","istat_id":"5403910036","name":"Solfagnano","place":"hamlet","population":"30","population:date":"2021-12-31","source:population":"Istat 2021 census","wikidata":"Q3964291"},"geometry":{"type":"Point","coordinates":[12.4305266,43.2168001]},"id":"node/312446870"},{"type":"Feature","properties":{"@id":"node/312446879","ele":"250","istat_id":"5403940001.447","name":"Santa Vittoria","place":"hamlet","population":"30","population:date":"2021-12-31","source:population":"Istat 2021 census","wikidata":"Q18493909"},"geometry":{"type":"Point","coordinates":[12.4013486,43.2501993]},"id":"node/312446879"},{"type":"Feature","properties":{"@id":"node/312446881","ele":"227","istat_id":"5403910038","name":"Stazione di Parlesca e Solfagnano","place":"village","population":"775","population:date":"2021-12-31","source:population":"Istat 2021 census"},"geometry":{"type":"Point","coordinates":[12.4113058,43.2210167]},"id":"node/312446881"},{"type":"Feature","properties":{"@id":"node/312446895","ele":"230","istat_id":"5403920038","name":"Tavernacce","place":"hamlet","population":"289","population:date":"2021-12-31","source:population":"Istat 2021 census","wikidata":"Q18494129"},"geometry":{"type":"Point","coordinates":[12.410956,43.230746]},"id":"node/312446895"},{"type":"Feature","properties":{"@id":"node/748805393","ele":"212","istat_id":"5403910051.510","name":"Villa Pitignano","place":"village","population":"3107","population:date":"2021-12-31","source:population":"Istat 2021 census","wikidata":"Q4012425"},"geometry":{"type":"Point","coordinates":[12.4523672,43.14721]},"id":"node/748805393"},{"type":"Feature","properties":{"@id":"node/748805395","ele":"205","istat_id":"5403910051","name":"Ponte Felcino","place":"village","population":"5146","population:date":"2021-12-31","source:population":"Istat 2021 census","wikidata":"Q18493538"},"geometry":{"type":"Point","coordinates":[12.4420991,43.1335585]},"id":"node/748805395"},{"type":"Feature","properties":{"@id":"node/748805397","ele":"191","istat_id":"5403910050","name":"Ponte Valleceppi","place":"village","population":"3356","population:date":"2021-12-31","source:population":"Istat 2021 census","wikidata":"Q3908042"},"geometry":{"type":"Point","coordinates":[12.4487918,43.109607]},"id":"node/748805397"},{"type":"Feature","properties":{"@id":"node/906849816","ele":"432","istat_id":"5403910047","name":"Montelaguardia","place":"village","population":"1372","population:date":"2021-12-31","source:population":"Istat 2021 census"},"geometry":{"type":"Point","coordinates":[12.3979897,43.1384429]},"id":"node/906849816"},{"type":"Feature","properties":{"@id":"node/928996602","ele":"353","istat_id":"5403910048","name":"Casaglia","place":"village","population":"795","population:date":"2021-12-31","source:population":"Istat 2021 census"},"geometry":{"type":"Point","coordinates":[12.4326916,43.1061164]},"id":"node/928996602"},{"type":"Feature","properties":{"@id":"node/1403182439","ele":"198","istat_id":"5403910049","name":"Pretola","place":"hamlet","population":"992","population:date":"2021-12-31","source:population":"Istat 2021 census","wikidata":"Q2318915"},"geometry":{"type":"Point","coordinates":[12.4393585,43.1147415]},"id":"node/1403182439"},{"type":"Feature","properties":{"@id":"node/1403946558","name":"Migiana di Monte Tezio","place":"hamlet","wikidata":"Q3857131"},"geometry":{"type":"Point","coordinates":[12.3768962,43.1946563]},"id":"node/1403946558"},{"type":"Feature","properties":{"@id":"node/1407785229","name":"Colognola","place":"hamlet"},"geometry":{"type":"Point","coordinates":[12.3543326,43.1762413]},"id":"node/1407785229"},{"type":"Feature","properties":{"@id":"node/1637706702","ele":"450","istat_id":"5403920039","name":"Conservoni","place":"hamlet","population":"361","population:date":"2021-12-31","source:population":"Istat 2021 census","wikidata":"Q18494279"},"geometry":{"type":"Point","coordinates":[12.365352,43.1448393]},"id":"node/1637706702"},{"type":"Feature","properties":{"@id":"node/1665668151","ele":"218","istat_id":"5403910052.629","name":"Capanne","place":"neighbourhood","population":"347","population:date":"2021-12-31","source:population":"Istat 2021 census","wikidata":"Q3656749"},"geometry":{"type":"Point","coordinates":[12.2886286,43.0587058]},"id":"node/1665668151"},{"type":"Feature","properties":{"@id":"node/1665668152","ele":"255","istat_id":"5403910001","name":"Bagnaia","place":"hamlet","population":"304","population:date":"2021-12-31","source:population":"Istat 2021 census"},"geometry":{"type":"Point","coordinates":[12.2884408,43.048571]},"id":"node/1665668152"},{"type":"Feature","properties":{"@id":"node/1665668153","ele":"225","istat_id":"5403910025","name":"Pilonico Materno","place":"hamlet","population":"170","population:date":"2021-12-31","source:population":"Istat 2021 census","wikidata":"Q3904987"},"geometry":{"type":"Point","coordinates":[12.2731013,43.0320334]},"id":"node/1665668153"},{"type":"Feature","properties":{"@id":"node/1667177034","ele":"295","istat_id":"5403910024","name":"Pila","place":"village","population":"1924","population:date":"2021-12-31","source:population":"Istat 2021 census","wikidata":"Q3904944"},"geometry":{"type":"Point","coordinates":[12.3328053,43.0510718]},"id":"node/1667177034"},{"type":"Feature","properties":{"@id":"node/1817726665","ele":"301","istat_id":"5403910052","name":"San Sisto","place":"neighbourhood","population":"6794","population:date":"2021-12-31","source:population":"Istat 2021 census","wikidata":"Q2287984"},"geometry":{"type":"Point","coordinates":[12.3463549,43.0850342]},"id":"node/1817726665"},{"type":"Feature","properties":{"@id":"node/1817760207","ele":"249","istat_id":"5403910052.735","name":"Sant'Andrea delle Fratte","place":"neighbourhood","population":"560","population:date":"2021-12-31","source:population":"Istat 2021 census","wikidata":"Q3948709"},"geometry":{"type":"Point","coordinates":[12.3382,43.0743033]},"id":"node/1817760207"},{"type":"Feature","properties":{"@id":"node/1913116959","ele":"294","istat_id":"5403910011","name":"Fontignano","place":"village","population":"996","population:date":"2021-12-31","source:population":"Istat 2021 census","wikidata":"Q1070894"},"geometry":{"type":"Point","coordinates":[12.1893982,43.0254218]},"id":"node/1913116959"},{"type":"Feature","properties":{"@id":"node/1969630002","ele":"229","istat_id":"5403910022","name":"Pianello","place":"village","population":"817","population:date":"2021-12-31","source:population":"Istat 2021 census","wikidata":"Q3901927"},"geometry":{"type":"Point","coordinates":[12.5407404,43.1424873]},"id":"node/1969630002"},{"type":"Feature","properties":{"@id":"node/2078389134","ele":"220","istat_id":"5403910010.504","name":"Bosco","place":"village","population":"893","population:date":"2021-12-31","source:population":"Istat 2021 census","wikidata":"Q18785396"},"geometry":{"type":"Point","coordinates":[12.4683153,43.1425693]},"id":"node/2078389134"},{"type":"Feature","properties":{"@id":"node/2109831246","ele":"236","istat_id":"5403910042","name":"Resina Sant'Orsola","place":"village","population":"315","population:date":"2021-12-31","source:population":"Istat 2021 census"},"geometry":{"type":"Point","coordinates":[12.4337212,43.1943756]},"id":"node/2109831246"},{"type":"Feature","properties":{"@id":"node/2145248416","name":"Le Pulci","place":"neighbourhood"},"geometry":{"type":"Point","coordinates":[12.463425,43.1676095]},"id":"node/2145248416"},{"type":"Feature","properties":{"@id":"node/2157247429","ele":"314","istat_id":"5403910029","name":"Ripa","place":"village","population":"947","population:date":"2021-12-31","source:population":"Istat 2021 census","wikidata":"Q3936322"},"geometry":{"type":"Point","coordinates":[12.5094542,43.1277214]},"id":"node/2157247429"},{"type":"Feature","properties":{"@id":"node/2177790907","ele":"269","istat_id":"5403910010.486","name":"Farneto","place":"village","population":"508","population:date":"2021-12-31","source:population":"Istat 2021 census","wikidata":"Q3739712"},"geometry":{"type":"Point","coordinates":[12.4972647,43.1644966]},"id":"node/2177790907"},{"type":"Feature","properties":{"@id":"node/2272592819","ele":"262","istat_id":"5403910034","name":"Sant'Egidio","place":"village","population":"1031","population:date":"2021-12-31","source:population":"Istat 2021 census"},"geometry":{"type":"Point","coordinates":[12.4910458,43.1043551]},"id":"node/2272592819"},{"type":"Feature","properties":{"@id":"node/2279269771","ele":"202","istat_id":"5403920018","name":"Lidarno","place":"hamlet","population":"92","population:date":"2021-12-31","source:population":"Istat 2021 census","wikidata":"Q3832032"},"geometry":{"type":"Point","coordinates":[12.4754546,43.1109582]},"id":"node/2279269771"},{"type":"Feature","properties":{"@id":"node/2283007997","ele":"279","istat_id":"5403920021","name":"Osteriaccia","place":"hamlet","population":"112","population:date":"2021-12-31","source:population":"Istat 2021 census"},"geometry":{"type":"Point","coordinates":[12.4934981,43.1310126]},"id":"node/2283007997"},{"type":"Feature","properties":{"@id":"node/2283007998","ele":"315","istat_id":"5403910044","name":"Civitella d'Arna","place":"hamlet","population":"121","population:date":"2021-12-31","source:population":"Istat 2021 census","wikidata":"Q1236794"},"geometry":{"type":"Point","coordinates":[12.490376,43.1271837]},"id":"node/2283007998"},{"type":"Feature","properties":{"@id":"node/2289006904","ele":"221","istat_id":"5403910039","name":"Collestrada","place":"village","population":"1826","population:date":"2021-12-31","source:population":"Istat 2021 census"},"geometry":{"type":"Point","coordinates":[12.4809643,43.0855522]},"id":"node/2289006904"},{"type":"Feature","properties":{"@id":"node/2331721957","name":"Ponte della Pietra","place":"hamlet"},"geometry":{"type":"Point","coordinates":[12.3648115,43.077783]},"id":"node/2331721957"},{"type":"Feature","properties":{"@id":"node/2368275894","name":"Ferro di Cavallo","place":"hamlet"},"geometry":{"type":"Point","coordinates":[12.3469934,43.1046943]},"id":"node/2368275894"},{"type":"Feature","properties":{"@id":"node/2444110248","ele":"179","istat_id":"5403910032","name":"San Martino in Campo","place":"village","population":"2190","population:date":"2021-12-31","source:population":"Istat 2021 census","wikidata":"Q3947654"},"geometry":{"type":"Point","coordinates":[12.3993307,43.0378834]},"id":"node/2444110248"},{"type":"Feature","properties":{"@id":"node/2444125163","name":"Montebello","place":"hamlet","wikidata":"Q3862187"},"geometry":{"type":"Point","coordinates":[12.4011585,43.0764831]},"id":"node/2444125163"},{"type":"Feature","properties":{"@id":"node/2444125168","ele":"180","istat_id":"5403910032.602","name":"Santa Maria Rossa","place":"village","population":"658","population:date":"2021-12-31","source:population":"Istat 2021 census","wikidata":"Q3949132"},"geometry":{"type":"Point","coordinates":[12.3980686,43.0274691]},"id":"node/2444125168"},{"type":"Feature","properties":{"@id":"node/2444149575","ele":"291","istat_id":"5403910045.589","name":"San Fortunato della Collina","place":"hamlet","population":"628","population:date":"2021-12-31","source:population":"Istat 2021 census","wikidata":"Q3947083"},"geometry":{"type":"Point","coordinates":[12.3870409,43.053866]},"id":"node/2444149575"},{"type":"Feature","properties":{"@id":"node/2444149578","ele":"273","istat_id":"5403910045","name":"San Martino in Colle","place":"village","population":"2128","population:date":"2021-12-31","source:population":"Istat 2021 census","wikidata":"Q18493826"},"geometry":{"type":"Point","coordinates":[12.3638718,43.033355]},"id":"node/2444149578"},{"type":"Feature","properties":{"@id":"node/2475066751","ele":"237","istat_id":"5403920004","name":"Ca' Gentili","place":"hamlet","population":"116","population:date":"2021-12-31","source:population":"Istat 2021 census"},"geometry":{"type":"Point","coordinates":[12.2059599,43.0587204]},"id":"node/2475066751"},{"type":"Feature","properties":{"@id":"node/2475107965","ele":"234","istat_id":"5403910018","name":"Mugnano","place":"village","population":"837","population:date":"2021-12-31","source:population":"Istat 2021 census","wikidata":"Q2227072"},"geometry":{"type":"Point","coordinates":[12.2207623,43.054883]},"id":"node/2475107965"},{"type":"Feature","properties":{"@id":"node/2524067709","ele":"337","istat_id":"5403910031","name":"San Martino dei Colli","place":"hamlet","population":"42","population:date":"2021-12-31","source:population":"Istat 2021 census","wikidata":"Q18493822"},"geometry":{"type":"Point","coordinates":[12.2456617,43.0466397]},"id":"node/2524067709"},{"type":"Feature","properties":{"@id":"node/2524149088","ele":"272","istat_id":"5403920024","name":"Pietraia","place":"hamlet","population":"75","population:date":"2021-12-31","source:population":"Istat 2021 census"},"geometry":{"type":"Point","coordinates":[12.2382233,43.0475249]},"id":"node/2524149088"},{"type":"Feature","properties":{"@id":"node/2834830874","name":"Case Nuove","place":"locality"},"geometry":{"type":"Point","coordinates":[12.3505467,43.0724206]},"id":"node/2834830874"},{"type":"Feature","properties":{"@id":"node/2885819898","name":"Fontana","place":"locality"},"geometry":{"type":"Point","coordinates":[12.3382606,43.1071573]},"id":"node/2885819898"},{"type":"Feature","properties":{"@id":"node/3125732329","ele":"194","istat_id":"5403926634","name":"Sant'Andrea di Agliano","place":"hamlet","population":"24","population:date":"2021-12-31","source:population":"Istat 2021 census","wikidata":"Q3948704"},"geometry":{"type":"Point","coordinates":[12.3950765,43.0537933]},"id":"node/3125732329"},{"type":"Feature","properties":{"@id":"node/3197950437","ele":"470","istat_id":"5403920047","name":"San Marino","place":"hamlet","population":"200","population:date":"2021-12-31","source:population":"Istat 2021 census"},"geometry":{"type":"Point","coordinates":[12.3839963,43.1419676]},"id":"node/3197950437"},{"type":"Feature","properties":{"@id":"node/3214001315","name":"Pilonico Paterno","place":"locality"},"geometry":{"type":"Point","coordinates":[12.5154333,43.1545399]},"id":"node/3214001315"},{"type":"Feature","properties":{"@id":"node/3214005362","name":"San Giustino d'Arna","place":"locality"},"geometry":{"type":"Point","coordinates":[12.5115125,43.1679305]},"id":"node/3214005362"},{"type":"Feature","properties":{"@id":"node/3260947672","ele":"255","istat_id":"5403910053","name":"Santa Sabina","place":"village","population":"1248","population:date":"2021-12-31","source:population":"Istat 2021 census"},"geometry":{"type":"Point","coordinates":[12.3219097,43.0882355]},"id":"node/3260947672"},{"type":"Feature","properties":{"@id":"node/3262616394","ele":"267","istat_id":"5403910047.530","name":"Ponte Rio","place":"village","population":"701","population:date":"2021-12-31","source:population":"Istat 2021 census"},"geometry":{"type":"Point","coordinates":[12.3970011,43.1246351]},"id":"node/3262616394"},{"type":"Feature","properties":{"@id":"node/3266842944","ele":"394","istat_id":"5403920046","name":"Badioli","place":"hamlet","population":"279","population:date":"2021-12-31","source:population":"Istat 2021 census","wikidata":"Q18492155"},"geometry":{"type":"Point","coordinates":[12.3571972,43.1489447]},"id":"node/3266842944"},{"type":"Feature","properties":{"@id":"node/4022428446","ele":"300","istat_id":"5403920002","name":"Boneggio","place":"hamlet","population":"26","population:date":"2021-12-31","source:population":"Istat 2021 census"},"geometry":{"type":"Point","coordinates":[12.3635999,43.0566226]},"id":"node/4022428446"},{"type":"Feature","properties":{"@id":"node/4022428447","ele":"221","istat_id":"5403920003","name":"Boschetto Vecchio","place":"hamlet","population":"146","population:date":"2021-12-31","source:population":"Istat 2021 census"},"geometry":{"type":"Point","coordinates":[12.2238466,43.0107857]},"id":"node/4022428447"},{"type":"Feature","properties":{"@id":"node/4022428449","ele":"172","istat_id":"5403940002.601","name":"Casaccia","place":"hamlet","population":"35","population:date":"2021-12-31","source:population":"Istat 2021 census"},"geometry":{"type":"Point","coordinates":[12.4139728,43.0294346]},"id":"node/4022428449"},{"type":"Feature","properties":{"@id":"node/4022428450","ele":"241","istat_id":"5403920007","name":"Case Lunghe","place":"hamlet","population":"59","population:date":"2021-12-31","source:population":"Istat 2021 census"},"geometry":{"type":"Point","coordinates":[12.2061427,43.0483414]},"id":"node/4022428450"},{"type":"Feature","properties":{"@id":"node/4022428451","ele":"246","istat_id":"5403910008","name":"Borgo Collestrada","place":"hamlet","population":"81","population:date":"2021-12-31","source:population":"Istat 2021 census","wikidata":"Q3683009"},"geometry":{"type":"Point","coordinates":[12.4726704,43.0853883]},"id":"node/4022428451"},{"type":"Feature","properties":{"@id":"node/4022428452","ele":"300","istat_id":"5403940002.652","name":"Contrada dei Muri","place":"hamlet","population":"61","population:date":"2021-12-31","source:population":"Istat 2021 census"},"geometry":{"type":"Point","coordinates":[12.2292297,43.011817]},"id":"node/4022428452"},{"type":"Feature","properties":{"@id":"node/4022428453","ele":"415","istat_id":"5403920013","name":"Fontana","place":"hamlet","population":"43","population:date":"2021-12-31","source:population":"Istat 2021 census"},"geometry":{"type":"Point","coordinates":[12.3242746,43.1133111]},"id":"node/4022428453"},{"type":"Feature","properties":{"@id":"node/4022428454","ele":"224","istat_id":"5403910054","name":"Canella di Sotto","place":"hamlet","population":"119","population:date":"2021-12-31","source:population":"Istat 2021 census"},"geometry":{"type":"Point","coordinates":[12.1868457,43.0123787]},"id":"node/4022428454"},{"type":"Feature","properties":{"@id":"node/4022428455","ele":"398","name":"Gualtarella","place":"hamlet","wikidata":"Q18492876"},"geometry":{"type":"Point","coordinates":[12.345311,43.0989034]},"id":"node/4022428455"},{"type":"Feature","properties":{"@id":"node/4022428456","ele":"309","istat_id":"5403940002.643","name":"I Fornaciari","place":"hamlet","population":"11","population:date":"2021-12-31","source:population":"Istat 2021 census"},"geometry":{"type":"Point","coordinates":[12.18721,43.0687863]},"id":"node/4022428456"},{"type":"Feature","properties":{"@id":"node/4022428457","ele":"332","istat_id":"5403910015","name":"Lacugnano","place":"village","population":"1242","population:date":"2021-12-31","source:population":"Istat 2021 census","wikidata":"Q18492964"},"geometry":{"type":"Point","coordinates":[12.3313598,43.0949351]},"id":"node/4022428457"},{"type":"Feature","properties":{"@id":"node/4022428459","ele":"491","istat_id":"5403920045","name":"Monte Bagnolo I","place":"hamlet","population":"248","population:date":"2021-12-31","source:population":"Istat 2021 census","wikidata":"Q18493144"},"geometry":{"type":"Point","coordinates":[12.4007749,43.155476]},"id":"node/4022428459"},{"type":"Feature","properties":{"@id":"node/4022428460","ele":"500","istat_id":"5403920043","name":"Monte Bagnolo II","place":"hamlet","population":"125","population:date":"2021-12-31","source:population":"Istat 2021 census"},"geometry":{"type":"Point","coordinates":[12.3920527,43.1567707]},"id":"node/4022428460"},{"type":"Feature","properties":{"@id":"node/4022428461","ele":"550","istat_id":"5403920020","name":"Monte Malbe","place":"hamlet","population":"122","population:date":"2021-12-31","source:population":"Istat 2021 census","wikidata":"Q18493149"},"geometry":{"type":"Point","coordinates":[12.3158888,43.1175119]},"id":"node/4022428461"},{"type":"Feature","properties":{"@id":"node/4024099819","ele":"175","istat_id":"5403920029","name":"Vescovato","place":"hamlet","population":"59","population:date":"2021-12-31","source:population":"Istat 2021 census"},"geometry":{"type":"Point","coordinates":[12.3947116,43.0175669]},"id":"node/4024099819"},{"type":"Feature","properties":{"@id":"node/4024099820","ele":"277","istat_id":"5403940001.500","name":"Podere le Spiagge","place":"hamlet","population":"15","population:date":"2021-12-31","source:population":"Istat 2021 census"},"geometry":{"type":"Point","coordinates":[12.5158219,43.1329066]},"id":"node/4024099820"},{"type":"Feature","properties":{"@id":"node/4024099821","ele":"325","istat_id":"5403910026","name":"Poggio delle Corti","place":"hamlet","population":"49","population:date":"2021-12-31","source:population":"Istat 2021 census","wikidata":"Q2112622"},"geometry":{"type":"Point","coordinates":[12.254471,43.0415957]},"id":"node/4024099821"},{"type":"Feature","properties":{"@id":"node/4024099822","ele":"174","istat_id":"5403920032","name":"Romano di Sotto","place":"hamlet","population":"64","population:date":"2021-12-31","source:population":"Istat 2021 census"},"geometry":{"type":"Point","coordinates":[12.4170923,43.038962]},"id":"node/4024099822"},{"type":"Feature","properties":{"@id":"node/4024099823","ele":"265","name":"Rosciolo","place":"neighbourhood"},"geometry":{"type":"Point","coordinates":[12.4700131,43.1578355]},"id":"node/4024099823"},{"type":"Feature","properties":{"@id":"node/4024099824","ele":"336","istat_id":"5403920042","name":"San Francesco","place":"hamlet","population":"68","population:date":"2021-12-31","source:population":"Istat 2021 census"},"geometry":{"type":"Point","coordinates":[12.5184661,43.173749]},"id":"node/4024099824"},{"type":"Feature","properties":{"@id":"node/4024099825","name":"San Marco","place":"suburb","wikidata":"Q3947585"},"geometry":{"type":"Point","coordinates":[12.3619505,43.1320493]},"id":"node/4024099825"},{"type":"Feature","properties":{"@id":"node/4024099827","ele":"289","istat_id":"5403910035","name":"Sant'Enea","place":"village","population":"1003","population:date":"2021-12-31","source:population":"Istat 2021 census","wikidata":"Q18493947"},"geometry":{"type":"Point","coordinates":[12.3572484,43.0099928]},"id":"node/4024099827"},{"type":"Feature","properties":{"@id":"node/4024099828","ele":"273","istat_id":"5403920037","name":"Sodo degli Ebrei","place":"hamlet","population":"191","population:date":"2021-12-31","source:population":"Istat 2021 census","wikidata":"Q18494057"},"geometry":{"type":"Point","coordinates":[12.413714,43.0971421]},"id":"node/4024099828"},{"type":"Feature","properties":{"@id":"node/4024099829","ele":"189","istat_id":"5403910041","name":"Valtiera","place":"hamlet","population":"103","population:date":"2021-12-31","source:population":"Istat 2021 census"},"geometry":{"type":"Point","coordinates":[12.4560224,43.0897514]},"id":"node/4024099829"},{"type":"Feature","properties":{"@id":"node/4024099830","ele":"250","istat_id":"5403940002.616","name":"Villa","place":"hamlet","population":"65","population:date":"2021-12-31","source:population":"Istat 2021 census"},"geometry":{"type":"Point","coordinates":[12.3447856,43.0453446]},"id":"node/4024099830"},{"type":"Feature","properties":{"@id":"node/4433375150","name":"Madonna Alta","place":"suburb","wikidata":"Q3842382"},"geometry":{"type":"Point","coordinates":[12.3688191,43.1053206]},"id":"node/4433375150"},{"type":"Feature","properties":{"@id":"node/4817565862","name":"Picco dell'Aquila","place":"locality"},"geometry":{"type":"Point","coordinates":[12.3935697,43.1716286]},"id":"node/4817565862"},{"type":"Feature","properties":{"@id":"node/5459044355","name":"Compresso Nuovo","place":"neighbourhood"},"geometry":{"type":"Point","coordinates":[12.338022,43.1821641]},"id":"node/5459044355"},{"type":"Feature","properties":{"@id":"node/5459044356","name":"Compresso Vecchio","place":"neighbourhood"},"geometry":{"type":"Point","coordinates":[12.3301792,43.1827039]},"id":"node/5459044356"},{"type":"Feature","properties":{"@id":"node/5534189789","ele":"293","name":"Oscano","place":"hamlet","wikidata":"Q18493268"},"geometry":{"type":"Point","coordinates":[12.3561713,43.15526]},"id":"node/5534189789"},{"type":"Feature","properties":{"@id":"node/5864326371","name":"Casale Pi√® di monte","place":"locality"},"geometry":{"type":"Point","coordinates":[12.3540401,43.2129292]},"id":"node/5864326371"},{"type":"Feature","properties":{"@id":"node/8342451410","name":"Elce","place":"neighbourhood"},"geometry":{"type":"Point","coordinates":[12.3807024,43.1172231]},"id":"node/8342451410"},{"type":"Feature","properties":{"@id":"node/8342451411","name":"Rimbocchi","place":"neighbourhood"},"geometry":{"type":"Point","coordinates":[12.3733752,43.1186749]},"id":"node/8342451411"},{"type":"Feature","properties":{"@id":"node/8607556812","ele":"335","istat_id":"5403920063","name":"Cava della Breccia","place":"neighbourhood","population":"134","population:date":"2021-12-31","source:population":"Istat 2021 census"},"geometry":{"type":"Point","coordinates":[12.4194169,43.1191292]},"id":"node/8607556812"},{"type":"Feature","properties":{"@id":"node/8660388194","name":"Sant'Erminio","place":"suburb"},"geometry":{"type":"Point","coordinates":[12.3986587,43.118843]},"id":"node/8660388194"},{"type":"Feature","properties":{"@id":"node/9477224307","name":"Morleschio","place":"hamlet"},"geometry":{"type":"Point","coordinates":[12.4680877,43.2192381]},"id":"node/9477224307"},{"type":"Feature","properties":{"@id":"node/9490455109","name":"Ascagnano","place":"hamlet"},"geometry":{"type":"Point","coordinates":[12.3855966,43.2517159]},"id":"node/9490455109"},{"type":"Feature","properties":{"@id":"node/9752574726","ele":"237","istat_id":"5403910052.619","name":"Castel del Piano","place":"neighbourhood","population":"6188","population:date":"2021-12-31","source:population":"Istat 2021 census"},"geometry":{"type":"Point","coordinates":[12.3064965,43.0595284]},"id":"node/9752574726"},{"type":"Feature","properties":{"@id":"node/10131281980","ele":"570","istat_id":"5403920051","name":"San Matteo","place":"neighbourhood","population":"80","population:date":"2021-12-31","source:population":"Istat 2021 census"},"geometry":{"type":"Point","coordinates":[12.3840849,43.1497877]},"id":"node/10131281980"},{"type":"Feature","properties":{"@id":"node/10697401472","name":"Podere Belvedere","place":"locality"},"geometry":{"type":"Point","coordinates":[12.3494951,43.1662886]},"id":"node/10697401472"},{"type":"Feature","properties":{"@id":"node/10912659666","name":"Ponte d'Oddi","place":"quarter"},"geometry":{"type":"Point","coordinates":[12.3755153,43.1270518]},"id":"node/10912659666"},{"type":"Feature","properties":{"@id":"node/10913691961","name":"Montegrillo","place":"quarter"},"geometry":{"type":"Point","coordinates":[12.3728096,43.1250699]},"id":"node/10913691961"},{"type":"Feature","properties":{"@id":"node/10919502316","name":"Santa Lucia","place":"suburb"},"geometry":{"type":"Point","coordinates":[12.3645306,43.1179502]},"id":"node/10919502316"},{"type":"Feature","properties":{"@id":"node/11338955274","name":"Pod.e Ortilullo","place":"locality"},"geometry":{"type":"Point","coordinates":[12.3212796,43.131137]},"id":"node/11338955274"},{"type":"Feature","properties":{"@id":"node/11348505144","name":"Il Pino","place":"locality"},"geometry":{"type":"Point","coordinates":[12.3519051,43.0498155]},"id":"node/11348505144"},{"type":"Feature","properties":{"@id":"node/12138274989","ele":"274","istat_id":"5403920050","name":"Pratolungo","place":"neighbourhood","population":"91","population:date":"2021-12-31","source:population":"Istat 2021 census"},"geometry":{"type":"Point","coordinates":[12.3343849,43.0589291]},"id":"node/12138274989"},{"type":"Feature","properties":{"@id":"node/12138274990","ele":"185","istat_id":"5403920055","name":"Il Vicinato","place":"neighbourhood","population":"196","population:date":"2021-12-31","source:population":"Istat 2021 census"},"geometry":{"type":"Point","coordinates":[12.4064842,43.0547835]},"id":"node/12138274990"},{"type":"Feature","properties":{"@id":"node/12138274991","ele":"177","istat_id":"5403920052","name":"Romano di Sopra","place":"hamlet","population":"63","population:date":"2021-12-31","source:population":"Istat 2021 census"},"geometry":{"type":"Point","coordinates":[12.4195759,43.0488223]},"id":"node/12138274991"},{"type":"Feature","properties":{"@id":"node/12138274992","ele":"315","istat_id":"5403920059","name":"Vestricciano","place":"neighbourhood","population":"156","population:date":"2021-12-31","source:population":"Istat 2021 census"},"geometry":{"type":"Point","coordinates":[12.3746395,43.0730965]},"id":"node/12138274992"},{"type":"Feature","properties":{"@id":"node/12138274993","ele":"269","istat_id":"5403920061","name":"Collicello","place":"hamlet","population":"68","population:date":"2021-12-31","source:population":"Istat 2021 census"},"geometry":{"type":"Point","coordinates":[12.4979675,43.1128576]},"id":"node/12138274993"},{"type":"Feature","properties":{"@id":"node/12138274994","ele":"520","istat_id":"5403920060","name":"Poggio Montione","place":"neighbourhood","population":"119","population:date":"2021-12-31","source:population":"Istat 2021 census"},"geometry":{"type":"Point","coordinates":[12.3440609,43.1379832]},"id":"node/12138274994"},{"type":"Feature","properties":{"@id":"node/12138274995","ele":"290","istat_id":"5403920058","name":"Val Vitiano","place":"neighbourhood","population":"281","population:date":"2021-12-31","source:population":"Istat 2021 census"},"geometry":{"type":"Point","coordinates":[12.4291391,43.1183568]},"id":"node/12138274995"},{"type":"Feature","properties":{"@id":"node/12138274996","ele":"330","istat_id":"5403920057","name":"La Piaggia","place":"neighbourhood","population":"224","population:date":"2021-12-31","source:population":"Istat 2021 census"},"geometry":{"type":"Point","coordinates":[12.4228121,43.104152]},"id":"node/12138274996"},{"type":"Feature","properties":{"@id":"node/12138274997","ele":"269","istat_id":"5403920049","name":"Chirigiola","place":"neighbourhood","population":"311","population:date":"2021-12-31","source:population":"Istat 2021 census"},"geometry":{"type":"Point","coordinates":[12.3385453,43.060433]},"id":"node/12138274997"},{"type":"Feature","properties":{"@id":"node/12138274998","ele":"185","istat_id":"5403920054","name":"Piscinello","place":"hamlet","population":"148","population:date":"2021-12-31","source:population":"Istat 2021 census"},"geometry":{"type":"Point","coordinates":[12.410652,43.0585376]},"id":"node/12138274998"},{"type":"Feature","properties":{"@id":"node/12138274999","ele":"207","istat_id":"5403920053","name":"Madonna del Piano","place":"neighbourhood","population":"430","population:date":"2021-12-31","source:population":"Istat 2021 census"},"geometry":{"type":"Point","coordinates":[12.4019662,43.0660719]},"id":"node/12138274999"},{"type":"Feature","properties":{"@id":"node/12138275000","ele":"268","istat_id":"5403920053.584","name":"Colonnetta","place":"neighbourhood","population":"568","population:date":"2021-12-31","source:population":"Istat 2021 census"},"geometry":{"type":"Point","coordinates":[12.3968829,43.0680331]},"id":"node/12138275000"},{"type":"Feature","properties":{"@id":"node/12138305101","ele":"190","istat_id":"5403920056","name":"Il Sardo - Palazzo Secco","place":"neighbourhood","population":"409","population:date":"2021-12-31","source:population":"Istat 2021 census"},"geometry":{"type":"Point","coordinates":[12.4187851,43.0711084]},"id":"node/12138305101"},{"type":"Feature","properties":{"@id":"node/12138305102","name":"Villa Gemini","place":"neighbourhood"},"geometry":{"type":"Point","coordinates":[12.4373906,43.1118423]},"id":"node/12138305102"},{"type":"Feature","properties":{"@id":"node/12138305103","ele":"274","istat_id":"5403910052.389","name":"Case Nuove","place":"neighbourhood","population":"2057","population:date":"2021-12-31","source:population":"Istat 2021 census"},"geometry":{"type":"Point","coordinates":[12.3519158,43.0699067]},"id":"node/12138305103"}]}