{"type":"FeatureCollection","name":"sexport","crs":{"type":"name","properties":{"name":"urn:ogc:def:crs:OGC:1.3:CRS84"}},"xy_coordinate_resolution":1e-15,"features":[{"type":"Feature","properties":{"id":"relation/42245","@id":"relation/42245","ele":null,"istat_id":null,"name":"Piegaro","place":null,"population":"3356","population:date":"01-01-2024","source:population":"https://esploradati.istat.it/","wikidata":"Q20511"},"geometry":{"type":"Polygon","coordinates":[[[12.0858821,42.9409408],[12.0894596,42.9413935],[12.094386,42.9413863],[12.1019232,42.9413712],[12.107767,42.9408254],[12.1129535,42.9401441],[12.1174776,42.9406511],[12.1214066,42.9412643],[12.1236521,42.9386548],[12.1240593,42.9396791],[12.125401,42.9417314],[12.1290777,42.9424413],[12.1337267,42.9386583],[12.1377225,42.9374502],[12.1425564,42.9348954],[12.1451355,42.9354728],[12.1476837,42.9395446],[12.1488559,42.9399265],[12.1518727,42.939006],[12.1519345,42.9342141],[12.153255,42.9334213],[12.1534814,42.9359363],[12.1573073,42.9359838],[12.1613299,42.9362688],[12.1653509,42.9353292],[12.1707891,42.9338279],[12.1737986,42.9339696],[12.1780796,42.9352283],[12.1801595,42.9356252],[12.1814083,42.9357786],[12.1851502,42.9366073],[12.1881514,42.939432],[12.1899572,42.9390395],[12.1929882,42.9381535],[12.1970132,42.9365734],[12.2020901,42.9359901],[12.2032747,42.9351286],[12.2050643,42.9339439],[12.2050788,42.9353842],[12.2046691,42.9369354],[12.2040282,42.939461],[12.2052849,42.9421855],[12.2089574,42.9423256],[12.2102432,42.9434691],[12.2111169,42.9475414],[12.2114398,42.9518768],[12.2131125,42.9543239],[12.2154081,42.955565],[12.217713,42.9572019],[12.2195233,42.9597081],[12.2208804,42.9633796],[12.2249922,42.9667392],[12.2280119,42.9677435],[12.2290636,42.9676913],[12.2331108,42.967685],[12.2374094,42.968977],[12.2393103,42.9715523],[12.2409418,42.9720193],[12.241285,42.9713163],[12.2431794,42.9714337],[12.2454543,42.9716869],[12.2475465,42.9712006],[12.2498212,42.9706329],[12.2541989,42.9709657],[12.2560706,42.9714156],[12.257179,42.971567],[12.261088,42.9726351],[12.2652434,42.9744853],[12.2643692,42.9750714],[12.2639074,42.9755065],[12.262007,42.9796349],[12.260712,42.9799355],[12.2556991,42.9802234],[12.2535672,42.9837622],[12.2517354,42.9845931],[12.2488049,42.9858109],[12.2449424,42.9877034],[12.2445382,42.9882101],[12.2434612,42.9917342],[12.244803,42.9955364],[12.2448333,42.9956616],[12.2466293,42.9997299],[12.2462425,43.0035332],[12.2448646,43.007681],[12.2435968,43.007879],[12.2415241,43.0072085],[12.240503,43.0070732],[12.2396305,43.0075172],[12.2368198,43.0079887],[12.2362795,43.00725],[12.2320337,43.0050259],[12.2299977,43.0033396],[12.2283881,43.0021081],[12.2251754,43.003733],[12.2243771,43.0043558],[12.220423,43.0054642],[12.2164861,43.0058372],[12.2123068,43.0062886],[12.2081583,43.0072049],[12.2034717,43.0043621],[12.2004996,43.0040958],[12.1969016,43.0033594],[12.1957854,43.0033545],[12.1940271,43.0037207],[12.1926116,43.0050366],[12.1925112,43.0076323],[12.1906709,43.0117184],[12.1895583,43.01131],[12.1886566,43.0105937],[12.1842872,43.0093861],[12.1807216,43.0085419],[12.1767744,43.0080788],[12.172701,43.007375],[12.1710553,43.0071146],[12.1677193,43.0061927],[12.1643612,43.005714],[12.1604692,43.0041151],[12.1586207,43.003334],[12.1610796,43.00021],[12.1629634,42.9980479],[12.1606279,42.9989022],[12.1568009,42.9975227],[12.1552663,42.9948638],[12.1541338,42.9907127],[12.152188,42.9881597],[12.1504794,42.9871263],[12.1487698,42.9858317],[12.1440749,42.9829941],[12.1436335,42.9837176],[12.1408069,42.9881892],[12.1362095,42.9913903],[12.1329303,42.9958881],[12.132691,42.9970357],[12.1286784,42.99857],[12.127512,42.999484],[12.1265319,42.9992923],[12.1247293,42.9987508],[12.1205172,42.9954829],[12.120244,42.9953123],[12.1167531,42.9934328],[12.1125983,42.992154],[12.1094104,42.9910268],[12.1077917,42.990451],[12.1092116,42.9896144],[12.1084847,42.9894767],[12.1043816,42.9883062],[12.1021421,42.9873324],[12.1011424,42.9877353],[12.1005812,42.987903],[12.0966146,42.9897337],[12.0926938,42.991274],[12.0922881,42.9916408],[12.0888153,42.9930576],[12.085811,42.9954492],[12.0844073,42.9963065],[12.0803522,42.9983877],[12.0784807,42.9994915],[12.0765925,43.0014602],[12.0745404,43.0033883],[12.0727388,43.0044092],[12.0684727,43.0064596],[12.064547,43.0062182],[12.0621716,43.0030719],[12.0620822,42.9992836],[12.0607136,42.9954395],[12.0605051,42.9944412],[12.0594259,42.9905036],[12.0583927,42.9872178],[12.0564465,42.9843964],[12.0558124,42.9831809],[12.0579363,42.9804904],[12.0586358,42.9792651],[12.0563978,42.9766687],[12.0524788,42.9762737],[12.0520666,42.9743893],[12.0533963,42.9715265],[12.0538896,42.9705769],[12.0562784,42.9673166],[12.0570188,42.9661758],[12.0573774,42.9632534],[12.0585906,42.9587909],[12.0601153,42.9551755],[12.0561805,42.9512198],[12.0527893,42.9478348],[12.0522924,42.9469566],[12.0509327,42.9420136],[12.0534495,42.9386689],[12.0580913,42.9373743],[12.0615316,42.9340855],[12.0650629,42.9351077],[12.0664626,42.9356555],[12.0705731,42.9372245],[12.0772134,42.9394006],[12.0811191,42.9398176],[12.0858821,42.9409408]]]}},{"type":"Feature","properties":{"id":"way/1370926045","@id":"way/1370926045","ele":null,"istat_id":null,"name":"C. Selva Piana","place":"locality","population":null,"population:date":null,"source:population":null,"wikidata":null},"geometry":{"type":"Polygon","coordinates":[[[12.0668581,42.9536193],[12.0669955,42.9535235],[12.0670792,42.9535878],[12.0669418,42.9536836],[12.0668581,42.9536193]]]}},{"type":"Feature","properties":{"id":"way/1370926046","@id":"way/1370926046","ele":null,"istat_id":null,"name":"C. Selva Piana","place":"locality","population":null,"population:date":null,"source:population":null,"wikidata":null},"geometry":{"type":"Polygon","coordinates":[[[12.0671576,42.9534911],[12.0672603,42.9534113],[12.0674275,42.9535265],[12.0673248,42.9536063],[12.0671576,42.9534911]]]}},{"type":"Feature","properties":{"id":"node/339387592","@id":"node/339387592","ele":"350","istat_id":"5404010001","name":"Castiglion Fosco","place":"hamlet","population":"266","population:date":"2021-12-31","source:population":"Istat 2021 census","wikidata":"Q612565"},"geometry":{"type":"Point","coordinates":[12.1684338,42.9813808]}},{"type":"Feature","properties":{"id":"node/339387630","@id":"node/339387630","ele":"336","istat_id":"5404020006","name":"Collebaldo","place":"hamlet","population":"59","population:date":"2021-12-31","source:population":"Istat 2021 census","wikidata":null},"geometry":{"type":"Point","coordinates":[12.1747807,42.9789357]}},{"type":"Feature","properties":{"id":"node/339387665","@id":"node/339387665","ele":"294","istat_id":"5404026607","name":"Collicello","place":"hamlet","population":"26","population:date":"2021-12-31","source:population":"Istat 2021 census","wikidata":null},"geometry":{"type":"Point","coordinates":[12.2115836,42.984805]}},{"type":"Feature","properties":{"id":"node/339387674","@id":"node/339387674","ele":"400","istat_id":"5404026610","name":"La Fontana","place":"hamlet","population":"15","population:date":"2021-12-31","source:population":"Istat 2021 census","wikidata":null},"geometry":{"type":"Point","coordinates":[12.1900308,42.9650007]}},{"type":"Feature","properties":{"id":"node/339387675","@id":"node/339387675","ele":"275","istat_id":null,"name":"La Pevole","place":"neighbourhood","population":null,"population:date":null,"source:population":null,"wikidata":null},"geometry":{"type":"Point","coordinates":[12.1676054,42.9855591]}},{"type":"Feature","properties":{"id":"node/1296507503","@id":"node/1296507503","ele":"609","istat_id":"5404010005","name":"Ponibbiale","place":"hamlet","population":"105","population:date":"2021-12-31","source:population":"Istat 2021 census","wikidata":null},"geometry":{"type":"Point","coordinates":[12.1145127,42.9553636]}},{"type":"Feature","properties":{"id":"node/1296508018","@id":"node/1296508018","ele":"556","istat_id":"5404026615","name":"Pratalenza","place":"hamlet","population":"9","population:date":"2021-12-31","source:population":"Istat 2021 census","wikidata":null},"geometry":{"type":"Point","coordinates":[12.1170891,42.9577245]}},{"type":"Feature","properties":{"id":"node/1296554107","@id":"node/1296554107","ele":"285","istat_id":"5404026603","name":"Borghetto","place":"hamlet","population":"17","population:date":"2021-12-31","source:population":"Istat 2021 census","wikidata":null},"geometry":{"type":"Point","coordinates":[12.0906405,42.978274]}},{"type":"Feature","properties":{"id":"node/1711813744","@id":"node/1711813744","ele":null,"istat_id":null,"name":"Posante di Sotto","place":"hamlet","population":null,"population:date":null,"source:population":null,"wikidata":null},"geometry":{"type":"Point","coordinates":[12.1608038,42.9544712]}},{"type":"Feature","properties":{"id":"node/1711813833","@id":"node/1711813833","ele":null,"istat_id":null,"name":"Refogliano","place":"hamlet","population":null,"population:date":null,"source:population":null,"wikidata":null},"geometry":{"type":"Point","coordinates":[12.147194,42.9701347]}},{"type":"Feature","properties":{"id":"node/1711813950","@id":"node/1711813950","ele":null,"istat_id":null,"name":"Posante di Sopra","place":"hamlet","population":null,"population:date":null,"source:population":null,"wikidata":null},"geometry":{"type":"Point","coordinates":[12.1624394,42.956395]}},{"type":"Feature","properties":{"id":"node/1711817925","@id":"node/1711817925","ele":null,"istat_id":null,"name":"Iernaccia","place":"hamlet","population":null,"population:date":null,"source:population":null,"wikidata":null},"geometry":{"type":"Point","coordinates":[12.1094982,42.9756846]}},{"type":"Feature","properties":{"id":"node/1945016944","@id":"node/1945016944","ele":"276","istat_id":"5404010004","name":"Pietrafitta","place":"village","population":"705","population:date":"2021-12-31","source:population":"Istat 2021 census","wikidata":"Q3903576"},"geometry":{"type":"Point","coordinates":[12.211782,42.9904984]}},{"type":"Feature","properties":{"id":"node/2900582229","@id":"node/2900582229","ele":null,"istat_id":null,"name":"Greppolischieto","place":"hamlet","population":null,"population:date":null,"source:population":null,"wikidata":null},"geometry":{"type":"Point","coordinates":[12.1518175,42.9452539]}},{"type":"Feature","properties":{"id":"node/4026452639","@id":"node/4026452639","ele":"232","istat_id":"5404026601","name":"Abbadia Settefrati","place":"hamlet","population":"7","population:date":"2021-12-31","source:population":"Istat 2021 census","wikidata":null},"geometry":{"type":"Point","coordinates":[12.2041689,42.9894756]}},{"type":"Feature","properties":{"id":"node/4026452640","@id":"node/4026452640","ele":"224","istat_id":"5404010007","name":"Acquaiola-Gratiano","place":"hamlet","population":"183","population:date":"2021-12-31","source:population":"Istat 2021 census","wikidata":null},"geometry":{"type":"Point","coordinates":[12.1833526,43.0089823]}},{"type":"Feature","properties":{"id":"node/4026452641","@id":"node/4026452641","ele":"243","istat_id":"5404010008","name":"Casaceccame","place":"hamlet","population":"53","population:date":"2021-12-31","source:population":"Istat 2021 census","wikidata":null},"geometry":{"type":"Point","coordinates":[12.1329213,42.9937354]}},{"type":"Feature","properties":{"id":"node/4026452642","@id":"node/4026452642","ele":"285","istat_id":"5404020008","name":"Ginestreto","place":"hamlet","population":"48","population:date":"2021-12-31","source:population":"Istat 2021 census","wikidata":null},"geometry":{"type":"Point","coordinates":[12.1652189,42.9871199]}},{"type":"Feature","properties":{"id":"node/4026452643","@id":"node/4026452643","ele":"301","istat_id":"5404020012","name":"Macereto Alto","place":"hamlet","population":"15","population:date":"2021-12-31","source:population":"Istat 2021 census","wikidata":null},"geometry":{"type":"Point","coordinates":[12.1300823,42.9902766]}},{"type":"Feature","properties":{"id":"node/4026452644","@id":"node/4026452644","ele":"232","istat_id":"5404010006","name":"Nociarelle-Scarpiello","place":"hamlet","population":"87","population:date":"2021-12-31","source:population":"Istat 2021 census","wikidata":null},"geometry":{"type":"Point","coordinates":[12.171363,43.0065044]}},{"type":"Feature","properties":{"id":"node/4026452645","@id":"node/4026452645","ele":"305","istat_id":"5404020014","name":"Oro","place":"hamlet","population":"199","population:date":"2021-12-31","source:population":"Istat 2021 census","wikidata":"Q3886100"},"geometry":{"type":"Point","coordinates":[12.16023,42.9912323]}},{"type":"Feature","properties":{"id":"node/4026452646","@id":"node/4026452646","ele":"240","istat_id":"5404010002","name":"Palombaro del Cieco","place":"hamlet","population":"91","population:date":"2021-12-31","source:population":"Istat 2021 census","wikidata":null},"geometry":{"type":"Point","coordinates":[12.1608176,43.0023504]}},{"type":"Feature","properties":{"id":"node/4026452647","@id":"node/4026452647","ele":"490","istat_id":"5404026616","name":"Vignaie","place":"hamlet","population":"15","population:date":"2021-12-31","source:population":"Istat 2021 census","wikidata":null},"geometry":{"type":"Point","coordinates":[12.1406354,42.9666652]}},{"type":"Feature","properties":{"id":"node/4026452648","@id":"node/4026452648","ele":"280","istat_id":"5404020017","name":"Vincenze","place":"hamlet","population":"30","population:date":"2021-12-31","source:population":"Istat 2021 census","wikidata":null},"geometry":{"type":"Point","coordinates":[12.1624339,42.988552]}},{"type":"Feature","properties":{"id":"node/12140079612","@id":"node/12140079612","ele":"435","istat_id":"5404020218","name":"Polino","place":"hamlet","population":"4","population:date":"2021-12-31","source:population":"Istat 2021 census","wikidata":null},"geometry":{"type":"Point","coordinates":[12.1031923,42.9671444]}},{"type":"Feature","properties":{"id":"node/12140079613","@id":"node/12140079613","ele":"256","istat_id":"5404040003","name":"Covaldone","place":"hamlet","population":"15","population:date":"2021-12-31","source:population":"Istat 2021 census","wikidata":null},"geometry":{"type":"Point","coordinates":[12.2261136,42.9929307]}},{"type":"Feature","properties":{"id":"node/12140079614","@id":"node/12140079614","ele":"528","istat_id":"5404040015","name":"Montagnola","place":"hamlet","population":"16","population:date":"2021-12-31","source:population":"Istat 2021 census","wikidata":null},"geometry":{"type":"Point","coordinates":[12.0838451,42.9428722]}},{"type":"Feature","properties":{"id":"node/12667050708","@id":"node/12667050708","ele":null,"istat_id":null,"name":"Greppaldino","place":"locality","population":null,"population:date":null,"source:population":null,"wikidata":null},"geometry":{"type":"Point","coordinates":[12.1433258,42.9821486]}},{"type":"Feature","properties":{"id":"node/12667050710","@id":"node/12667050710","ele":null,"istat_id":null,"name":"Crocev Vecchia","place":"locality","population":null,"population:date":null,"source:population":null,"wikidata":null},"geometry":{"type":"Point","coordinates":[12.1458578,42.9798724]}},{"type":"Feature","properties":{"id":"node/12670224185","@id":"node/12670224185","ele":null,"istat_id":null,"name":"Poste","place":"locality","population":null,"population:date":null,"source:population":null,"wikidata":null},"geometry":{"type":"Point","coordinates":[12.1609425,42.9472741]}},{"type":"Feature","properties":{"id":"node/12674033269","@id":"node/12674033269","ele":null,"istat_id":null,"name":"Greppo le Croci","place":"locality","population":null,"population:date":null,"source:population":null,"wikidata":null},"geometry":{"type":"Point","coordinates":[12.1967581,42.9627294]}},{"type":"Feature","properties":{"id":"node/12674033270","@id":"node/12674033270","ele":null,"istat_id":null,"name":"Pietramonella","place":"locality","population":null,"population:date":null,"source:population":null,"wikidata":null},"geometry":{"type":"Point","coordinates":[12.1869653,42.9609452]}},{"type":"Feature","properties":{"id":"node/12674194804","@id":"node/12674194804","ele":null,"istat_id":null,"name":"Ierna","place":"locality","population":null,"population:date":null,"source:population":null,"wikidata":null},"geometry":{"type":"Point","coordinates":[12.1182311,42.9722033]}},{"type":"Feature","properties":{"id":"node/12674194808","@id":"node/12674194808","ele":null,"istat_id":null,"name":"S. Felicissima","place":"locality","population":null,"population:date":null,"source:population":null,"wikidata":null},"geometry":{"type":"Point","coordinates":[12.1492964,42.9777295]}},{"type":"Feature","properties":{"id":"node/12685159358","@id":"node/12685159358","ele":null,"istat_id":null,"name":"Piana","place":"locality","population":null,"population:date":null,"source:population":null,"wikidata":null},"geometry":{"type":"Point","coordinates":[12.1386735,42.962383]}},{"type":"Feature","properties":{"id":"node/12685196544","@id":"node/12685196544","ele":null,"istat_id":null,"name":"Posabile","place":"locality","population":null,"population:date":null,"source:population":null,"wikidata":null},"geometry":{"type":"Point","coordinates":[12.1205592,42.9642585]}},{"type":"Feature","properties":{"id":"node/12989683114","@id":"node/12989683114","ele":null,"istat_id":null,"name":"Le buche del diavolo","place":"locality","population":null,"population:date":null,"source:population":null,"wikidata":null},"geometry":{"type":"Point","coordinates":[12.1461542,42.963859]}}]}